[
    {
        "city": "Kabul", 
        "lat": "34.5328", 
        "lng": "69.1658", 
        "country": "Afghanistan", 
        "iso2": "AF", 
        "admin_name": "K\u0101bul", 
        "capital": "primary", 
        "population": "3678034", 
        "population_proper": "3678034"
    }, 
    {
        "city": "Kandah\u0101r", 
        "lat": "31.6078", 
        "lng": "65.7053", 
        "country": "Afghanistan", 
        "iso2": "AF", 
        "admin_name": "Kandah\u0101r", 
        "capital": "admin", 
        "population": "491500", 
        "population_proper": "491500"
    }, 
    {
        "city": "Her\u0101t", 
        "lat": "34.3738", 
        "lng": "62.1792", 
        "country": "Afghanistan", 
        "iso2": "AF", 
        "admin_name": "Her\u0101t", 
        "capital": "admin", 
        "population": "436300", 
        "population_proper": "436300"
    }, 
    {
        "city": "Maz\u0101r-e Shar\u012bf", 
        "lat": "36.7000", 
        "lng": "67.1167", 
        "country": "Afghanistan", 
        "iso2": "AF", 
        "admin_name": "Balkh", 
        "capital": "admin", 
        "population": "427600", 
        "population_proper": "427600"
    }, 
    {
        "city": "Kunduz", 
        "lat": "36.7280", 
        "lng": "68.8725", 
        "country": "Afghanistan", 
        "iso2": "AF", 
        "admin_name": "Kunduz", 
        "capital": "admin", 
        "population": "259809", 
        "population_proper": "161902"
    }, 
    {
        "city": "Jal\u0101l\u0101b\u0101d", 
        "lat": "34.4303", 
        "lng": "70.4528", 
        "country": "Afghanistan", 
        "iso2": "AF", 
        "admin_name": "Nangarh\u0101r", 
        "capital": "admin", 
        "population": "205423", 
        "population_proper": "205423"
    }, 
    {
        "city": "Lashkar G\u0101h", 
        "lat": "31.5938", 
        "lng": "64.3716", 
        "country": "Afghanistan", 
        "iso2": "AF", 
        "admin_name": "Helmand", 
        "capital": "admin", 
        "population": "201546", 
        "population_proper": "201546"
    }, 
    {
        "city": "Ma\u012bmanah", 
        "lat": "35.9302", 
        "lng": "64.7701", 
        "country": "Afghanistan", 
        "iso2": "AF", 
        "admin_name": "F\u0101ry\u0101b", 
        "capital": "admin", 
        "population": "199795", 
        "population_proper": "199795"
    }, 
    {
        "city": "Shibirgh\u0101n", 
        "lat": "36.6650", 
        "lng": "65.7520", 
        "country": "Afghanistan", 
        "iso2": "AF", 
        "admin_name": "Jowzj\u0101n", 
        "capital": "admin", 
        "population": "175599", 
        "population_proper": "175599"
    }, 
    {
        "city": "Kh\u014dst", 
        "lat": "33.3333", 
        "lng": "69.9167", 
        "country": "Afghanistan", 
        "iso2": "AF", 
        "admin_name": "Kh\u014dst", 
        "capital": "admin", 
        "population": "160214", 
        "population_proper": "160214"
    },
    {
        "city": "Tirana", 
        "lat": "41.3300", 
        "lng": "19.8200", 
        "country": "Albania", 
        "iso2": "AL", 
        "admin_name": "Tiran\u00eb", 
        "capital": "primary", 
        "population": "418495", 
        "population_proper": "418495"
    }, 
    {
        "city": "Durr\u00ebs", 
        "lat": "41.3167", 
        "lng": "19.4500", 
        "country": "Albania", 
        "iso2": "AL", 
        "admin_name": "Durr\u00ebs", 
        "capital": "admin", 
        "population": "142432", 
        "population_proper": "122034"
    }, 
    {
        "city": "Vlor\u00eb", 
        "lat": "40.4500", 
        "lng": "19.4833", 
        "country": "Albania", 
        "iso2": "AL", 
        "admin_name": "Vlor\u00eb", 
        "capital": "admin", 
        "population": "130827", 
        "population_proper": "130827"
    }, 
    {
        "city": "Kam\u00ebz", 
        "lat": "41.3833", 
        "lng": "19.7667", 
        "country": "Albania", 
        "iso2": "AL", 
        "admin_name": "Tiran\u00eb", 
        "capital": "", 
        "population": "126777", 
        "population_proper": "126777"
    }, 
    {
        "city": "Fier", 
        "lat": "40.7167", 
        "lng": "19.5500", 
        "country": "Albania", 
        "iso2": "AL", 
        "admin_name": "Fier", 
        "capital": "admin", 
        "population": "120655", 
        "population_proper": "120655"
    }, 
    {
        "city": "Shkod\u00ebr", 
        "lat": "42.0667", 
        "lng": "19.5000", 
        "country": "Albania", 
        "iso2": "AL", 
        "admin_name": "Shkod\u00ebr", 
        "capital": "admin", 
        "population": "112276", 
        "population_proper": "112276"
    }, 
    {
        "city": "Elbasan", 
        "lat": "41.1125", 
        "lng": "20.0822", 
        "country": "Albania", 
        "iso2": "AL", 
        "admin_name": "Elbasan", 
        "capital": "admin", 
        "population": "78703", 
        "population_proper": "78703"
    }, 
    {
        "city": "Kor\u00e7\u00eb", 
        "lat": "40.6167", 
        "lng": "20.7667", 
        "country": "Albania", 
        "iso2": "AL", 
        "admin_name": "Kor\u00e7\u00eb", 
        "capital": "admin", 
        "population": "51152", 
        "population_proper": "51152"
    }, 
    {
        "city": "Sarand\u00eb", 
        "lat": "39.8833", 
        "lng": "20.0167", 
        "country": "Albania", 
        "iso2": "AL", 
        "admin_name": "Vlor\u00eb", 
        "capital": "", 
        "population": "41000", 
        "population_proper": "41000"
    }, 
    {
        "city": "Berat", 
        "lat": "40.7049", 
        "lng": "19.9497", 
        "country": "Albania", 
        "iso2": "AL", 
        "admin_name": "Berat", 
        "capital": "admin", 
        "population": "36496", 
        "population_proper": "36496"
    },
    {
        "city": "Dubai", 
        "lat": "25.2697", 
        "lng": "55.3094", 
        "country": "United Arab Emirates", 
        "iso2": "AE", 
        "admin_name": "Dubayy", 
        "capital": "admin", 
        "population": "2502715", 
        "population_proper": "2502715"
    }, 
    {
        "city": "Sharjah", 
        "lat": "25.3575", 
        "lng": "55.3919", 
        "country": "United Arab Emirates", 
        "iso2": "AE", 
        "admin_name": "Ash Sh\u0101riqah", 
        "capital": "admin", 
        "population": "1400000", 
        "population_proper": "1400000"
    }, 
    {
        "city": "Abu Dhabi", 
        "lat": "24.4781", 
        "lng": "54.3686", 
        "country": "United Arab Emirates", 
        "iso2": "AE", 
        "admin_name": "Ab\u016b Z\u0327aby", 
        "capital": "primary", 
        "population": "1000000", 
        "population_proper": "1000000"
    }, 
    {
        "city": "Al \u2018Ayn", 
        "lat": "24.2075", 
        "lng": "55.7447", 
        "country": "United Arab Emirates", 
        "iso2": "AE", 
        "admin_name": "Ab\u016b Z\u0327aby", 
        "capital": "", 
        "population": "766936", 
        "population_proper": "766936"
    }, 
    {
        "city": "\u2018Ajm\u0101n", 
        "lat": "25.3994", 
        "lng": "55.4797", 
        "country": "United Arab Emirates", 
        "iso2": "AE", 
        "admin_name": "\u2018Ajm\u0101n", 
        "capital": "admin", 
        "population": "238119", 
        "population_proper": "238119"
    }, 
    {
        "city": "Ra\u2019s al Khaymah", 
        "lat": "25.7915", 
        "lng": "55.9428", 
        "country": "United Arab Emirates", 
        "iso2": "AE", 
        "admin_name": "Ra\u2019s al Khaymah", 
        "capital": "admin", 
        "population": "160849", 
        "population_proper": "115949"
    }, 
    {
        "city": "Al Fujayrah", 
        "lat": "25.1308", 
        "lng": "56.3347", 
        "country": "United Arab Emirates", 
        "iso2": "AE", 
        "admin_name": "Al Fujayrah", 
        "capital": "admin", 
        "population": "93673", 
        "population_proper": "93673"
    }, 
    {
        "city": "Umm al Qaywayn", 
        "lat": "25.5653", 
        "lng": "55.5533", 
        "country": "United Arab Emirates", 
        "iso2": "AE", 
        "admin_name": "Umm al Qaywayn", 
        "capital": "admin", 
        "population": "44411", 
        "population_proper": "32651"
    }, 
    {
        "city": "Mad\u012bnat Z\u0101yid", 
        "lat": "23.6522", 
        "lng": "53.6536", 
        "country": "United Arab Emirates", 
        "iso2": "AE", 
        "admin_name": "Ab\u016b Z\u0327aby", 
        "capital": "", 
        "population": "29095", 
        "population_proper": "29095"
    }, 
    {
        "city": "Shar\u012byah", 
        "lat": "24.8151", 
        "lng": "56.0986", 
        "country": "United Arab Emirates", 
        "iso2": "AE", 
        "admin_name": "\u2018Ajm\u0101n", 
        "capital": "", 
        "population": "", 
        "population_proper": ""
    },
      {
        "city": "Dubai", 
        "lat": "25.2697", 
        "lng": "55.3094", 
        "country": "United Arab Emirates", 
        "iso2": "AE", 
        "admin_name": "Dubayy", 
        "capital": "admin", 
        "population": "2502715", 
        "population_proper": "2502715"
    }, 
    {
        "city": "Sharjah", 
        "lat": "25.3575", 
        "lng": "55.3919", 
        "country": "United Arab Emirates", 
        "iso2": "AE", 
        "admin_name": "Ash Sh\u0101riqah", 
        "capital": "admin", 
        "population": "1400000", 
        "population_proper": "1400000"
    }, 
    {
        "city": "Abu Dhabi", 
        "lat": "24.4781", 
        "lng": "54.3686", 
        "country": "United Arab Emirates", 
        "iso2": "AE", 
        "admin_name": "Ab\u016b Z\u0327aby", 
        "capital": "primary", 
        "population": "1000000", 
        "population_proper": "1000000"
    }, 
    {
        "city": "Al \u2018Ayn", 
        "lat": "24.2075", 
        "lng": "55.7447", 
        "country": "United Arab Emirates", 
        "iso2": "AE", 
        "admin_name": "Ab\u016b Z\u0327aby", 
        "capital": "", 
        "population": "766936", 
        "population_proper": "766936"
    }, 
    {
        "city": "\u2018Ajm\u0101n", 
        "lat": "25.3994", 
        "lng": "55.4797", 
        "country": "United Arab Emirates", 
        "iso2": "AE", 
        "admin_name": "\u2018Ajm\u0101n", 
        "capital": "admin", 
        "population": "238119", 
        "population_proper": "238119"
    }, 
    {
        "city": "Ra\u2019s al Khaymah", 
        "lat": "25.7915", 
        "lng": "55.9428", 
        "country": "United Arab Emirates", 
        "iso2": "AE", 
        "admin_name": "Ra\u2019s al Khaymah", 
        "capital": "admin", 
        "population": "160849", 
        "population_proper": "115949"
    }, 
    {
        "city": "Al Fujayrah", 
        "lat": "25.1308", 
        "lng": "56.3347", 
        "country": "United Arab Emirates", 
        "iso2": "AE", 
        "admin_name": "Al Fujayrah", 
        "capital": "admin", 
        "population": "93673", 
        "population_proper": "93673"
    }, 
    {
        "city": "Umm al Qaywayn", 
        "lat": "25.5653", 
        "lng": "55.5533", 
        "country": "United Arab Emirates", 
        "iso2": "AE", 
        "admin_name": "Umm al Qaywayn", 
        "capital": "admin", 
        "population": "44411", 
        "population_proper": "32651"
    }, 
    {
        "city": "Mad\u012bnat Z\u0101yid", 
        "lat": "23.6522", 
        "lng": "53.6536", 
        "country": "United Arab Emirates", 
        "iso2": "AE", 
        "admin_name": "Ab\u016b Z\u0327aby", 
        "capital": "", 
        "population": "29095", 
        "population_proper": "29095"
    }, 
    {
        "city": "Shar\u012byah", 
        "lat": "24.8151", 
        "lng": "56.0986", 
        "country": "United Arab Emirates", 
        "iso2": "AE", 
        "admin_name": "\u2018Ajm\u0101n", 
        "capital": "", 
        "population": "", 
        "population_proper": ""
    }, 
    {
        "city": "Andorra la Vella", 
        "lat": "42.5000", 
        "lng": "1.5000", 
        "country": "Andorra", 
        "iso2": "AD", 
        "admin_name": "Andorra la Vella", 
        "capital": "primary", 
        "population": "22151", 
        "population_proper": "22151"
    }, 
    {
        "city": "Pas de la Casa", 
        "lat": "42.5437", 
        "lng": "1.7337", 
        "country": "Andorra", 
        "iso2": "AD", 
        "admin_name": "Canillo", 
        "capital": "", 
        "population": "2996", 
        "population_proper": "2996"
    }, 
    {
        "city": "Escaldes-Engordany", 
        "lat": "42.5085", 
        "lng": "1.5385", 
        "country": "Andorra", 
        "iso2": "AD", 
        "admin_name": "Escaldes-Engordany", 
        "capital": "admin", 
        "population": "15853", 
        "population_proper": ""
    }, 
    {
        "city": "Encamp", 
        "lat": "42.5167", 
        "lng": "1.5667", 
        "country": "Andorra", 
        "iso2": "AD", 
        "admin_name": "Encamp", 
        "capital": "admin", 
        "population": "11223", 
        "population_proper": ""
    }, 
    {
        "city": "La Massana", 
        "lat": "42.5434", 
        "lng": "1.5148", 
        "country": "Andorra", 
        "iso2": "AD", 
        "admin_name": "La Massana", 
        "capital": "admin", 
        "population": "7211", 
        "population_proper": ""
    }, 
    {
        "city": "Sant Juli\u00e0 de L\u00f2ria", 
        "lat": "42.4664", 
        "lng": "1.4933", 
        "country": "Andorra", 
        "iso2": "AD", 
        "admin_name": "Sant Juli\u00e0 de L\u00f2ria", 
        "capital": "admin", 
        "population": "8022", 
        "population_proper": ""
    }, 
    {
        "city": "Ordino", 
        "lat": "42.5550", 
        "lng": "1.5331", 
        "country": "Andorra", 
        "iso2": "AD", 
        "admin_name": "Ordino", 
        "capital": "admin", 
        "population": "3066", 
        "population_proper": ""
    }, 
    {
        "city": "Canillo", 
        "lat": "42.5670", 
        "lng": "1.5981", 
        "country": "Andorra", 
        "iso2": "AD", 
        "admin_name": "Canillo", 
        "capital": "admin", 
        "population": "3292", 
        "population_proper": ""
    }, 
    {
        "city": "Arinsal", 
        "lat": "42.572", 
        "lng": "1.485", 
        "country": "Andorra", 
        "iso2": "AD", 
        "admin_name": "Andorra la Vella", 
        "capital": "", 
        "population": "1,419", 
        "population_proper": ""
    }, 
    {
        "city": "El Tarter", 
        "lat": "42.58", 
        "lng": "1.654", 
        "country": "Andorra", 
        "iso2": "AD", 
        "admin_name": "Escaldes-Engordany", 
        "capital": "", 
        "population": "1052", 
        "population_proper": ""
    },
    {
        "city": "Saint John\u2019s", 
        "lat": "17.1211", 
        "lng": "-61.8447", 
        "country": "Antigua And Barbuda", 
        "iso2": "AG", 
        "admin_name": "Saint John", 
        "capital": "primary", 
        "population": "21926", 
        "population_proper": "21926"
    }, 
    {
        "city": "All Saints", 
        "lat": "17.067", 
        "lng": "-61.793", 
        "country": "Antigua And Barbuda", 
        "iso2": "AG", 
        "admin_name": "Saint Peter", 
        "capital": "", 
        "population": "2526", 
        "population_proper": ""
    }, 
    {
        "city": "Piggotts", 
        "lat": "17.117", 
        "lng": "-61.8", 
        "country": "Antigua And Barbuda", 
        "iso2": "AG", 
        "admin_name": "Saint George", 
        "capital": "", 
        "population": "1878", 
        "population_proper": ""
    }, 
    {
        "city": "Liberta", 
        "lat": "17.041", 
        "lng": "-61.791", 
        "country": "Antigua And Barbuda", 
        "iso2": "AG", 
        "admin_name": "Saint Paul", 
        "capital": "", 
        "population": "1668", 
        "population_proper": ""
    }, 
    {
        "city": "Bolands", 
        "lat": "17.066", 
        "lng": "-61.875", 
        "country": "Antigua And Barbuda", 
        "iso2": "AG", 
        "admin_name": "Saint Mary", 
        "capital": "", 
        "population": "1657", 
        "population_proper": ""
    }, 
    {
        "city": "Potters Village", 
        "lat": "17.113", 
        "lng": "-61.82", 
        "country": "Antigua And Barbuda", 
        "iso2": "AG", 
        "admin_name": "Saint John", 
        "capital": "", 
        "population": "1433", 
        "population_proper": ""
    }, 
    {
        "city": "Codrington", 
        "lat": "17.633", 
        "lng": "-61.833", 
        "country": "Antigua And Barbuda", 
        "iso2": "AG", 
        "admin_name": "Barbuda", 
        "capital": "", 
        "population": "1325", 
        "population_proper": ""
    }, 
    {
        "city": "Parham", 
        "lat": "17.097", 
        "lng": "-61.77", 
        "country": "Antigua And Barbuda", 
        "iso2": "AG", 
        "admin_name": "Saint Peter", 
        "capital": "", 
        "population": "969", 
        "population_proper": ""
    }, 
    {
        "city": "Carlisle", 
        "lat": "17.132", 
        "lng": "-61.804", 
        "country": "Antigua And Barbuda", 
        "iso2": "AG", 
        "admin_name": "Saint George", 
        "capital": "", 
        "population": "831", 
        "population_proper": ""
    }, 
    {
        "city": "Cedar Grove", 
        "lat": "17.162", 
        "lng": "-61.818", 
        "country": "Antigua And Barbuda", 
        "iso2": "AG", 
        "admin_name": "Saint John", 
        "capital": "", 
        "population": "789", 
        "population_proper": ""
    }, 
    {
        "city": "Woods", 
        "lat": "17.1353", 
        "lng": "-61.8258", 
        "country": "Antigua And Barbuda", 
        "iso2": "AG", 
        "admin_name": "Saint Paul", 
        "capital": "", 
        "population": "", 
        "population_proper": ""
    }, 
    {
        "city": "Boon House", 
        "lat": "17.1667", 
        "lng": "-61.8333", 
        "country": "Antigua And Barbuda", 
        "iso2": "AG", 
        "admin_name": "Saint Paul", 
        "capital": "", 
        "population": "", 
        "population_proper": ""
    },
    {
        "city": "Blowing Point Village", 
        "lat": "18.176", 
        "lng": "-63.09", 
        "country": "Anguilla", 
        "iso2": "AI", 
        "admin_name": "", 
        "capital": "", 
        "population": "942", 
        "population_proper": ""
    }, 
    {
        "city": "Sandy Ground Village", 
        "lat": "18.201", 
        "lng": "-63.09", 
        "country": "Anguilla", 
        "iso2": "AI", 
        "admin_name": "", 
        "capital": "", 
        "population": "274", 
        "population_proper": ""
    }, 
    {
        "city": "Bungalows", 
        "lat": "18.1848", 
        "lng": "-63.1010", 
        "country": "Anguilla", 
        "iso2": "AI", 
        "admin_name": "", 
        "capital": "", 
        "population": "", 
        "population_proper": ""
    }, 

    {
        "city": "Long Ground", 
        "lat": "18.2022", 
        "lng": "-63.0598", 
        "country": "Anguilla", 
        "iso2": "AI", 
        "admin_name": "", 
        "capital": "", 
        "population": "", 
        "population_proper": ""
    }, 
    {
        "city": "Shoal Bay Village", 
        "lat": "18.2542", 
        "lng": "-63.0308", 
        "country": "Anguilla", 
        "iso2": "AI", 
        "admin_name": "", 
        "capital": "", 
        "population": "", 
        "population_proper": ""
    }, 
    {
        "city": "The Valley", 
        "lat": "18.2167", 
        "lng": "-63.0500", 
        "country": "Anguilla", 
        "iso2": "AI", 
        "admin_name": "", 
        "capital": "primary", 
        "population": "2035", 
        "population_proper": ""
    }, 
    {
        "city": "West End Village", 
        "lat": "18.1700", 
        "lng": "-63.1589", 
        "country": "Anguilla", 
        "iso2": "AI", 
        "admin_name": "", 
        "capital": "", 
        "population": "", 
        "population_proper": ""
    }, 
    {
        "city": "Little Dix", 
        "lat": "18.2332", 
        "lng": "-63.0364", 
        "country": "Anguilla", 
        "iso2": "AI", 
        "admin_name": "", 
        "capital": "", 
        "population": "", 
        "population_proper": ""
    }, 
    {
        "city": "Island Harbour", 
        "lat": "18.2560", 
        "lng": "-63.0049", 
        "country": "Anguilla", 
        "iso2": "AI", 
        "admin_name": "", 
        "capital": "", 
        "population": "", 
        "population_proper": ""
    }, 
    {
        "city": "The Quarter", 
        "lat": "18.2107", 
        "lng": "-63.0483", 
        "country": "Anguilla", 
        "iso2": "AI", 
        "admin_name": "", 
        "capital": "", 
        "population": "", 
        "population_proper": ""
    },
    {
        "city": "Yerevan", 
        "lat": "40.1814", 
        "lng": "44.5144", 
        "country": "Armenia", 
        "iso2": "AM", 
        "admin_name": "Yerevan", 
        "capital": "primary", 
        "population": "1075800", 
        "population_proper": "1075800"
    }, 
    {
        "city": "Gyumri", 
        "lat": "40.7833", 
        "lng": "43.8333", 
        "country": "Armenia", 
        "iso2": "AM", 
        "admin_name": "Shirak", 
        "capital": "admin", 
        "population": "121976", 
        "population_proper": "121976"
    }, 
    {
        "city": "Vanadzor", 
        "lat": "40.8128", 
        "lng": "44.4883", 
        "country": "Armenia", 
        "iso2": "AM", 
        "admin_name": "Lorri", 
        "capital": "admin", 
        "population": "90525", 
        "population_proper": "90525"
    }, 
    {
        "city": "Vagharshapat", 
        "lat": "40.1728", 
        "lng": "44.2925", 
        "country": "Armenia", 
        "iso2": "AM", 
        "admin_name": "Armavir", 
        "capital": "", 
        "population": "57500", 
        "population_proper": "57500"
    }, 
    {
        "city": "Abovyan", 
        "lat": "40.2739", 
        "lng": "44.6256", 
        "country": "Armenia", 
        "iso2": "AM", 
        "admin_name": "Kotayk\u2019", 
        "capital": "", 
        "population": "44400", 
        "population_proper": "44400"
    }, 
    {
        "city": "Kapan", 
        "lat": "39.2011", 
        "lng": "46.4150", 
        "country": "Armenia", 
        "iso2": "AM", 
        "admin_name": "Syunik\u2019", 
        "capital": "admin", 
        "population": "43190", 
        "population_proper": "43190"
    }, 
    {
        "city": "Armavir", 
        "lat": "40.1500", 
        "lng": "44.0400", 
        "country": "Armenia", 
        "iso2": "AM", 
        "admin_name": "Armavir", 
        "capital": "admin", 
        "population": "28800", 
        "population_proper": "28800"
    }, 
    {
        "city": "Artashat", 
        "lat": "39.9539", 
        "lng": "44.5506", 
        "country": "Armenia", 
        "iso2": "AM", 
        "admin_name": "Ararat", 
        "capital": "admin", 
        "population": "25400", 
        "population_proper": "25400"
    }, 
    {
        "city": "Ch\u2019arents\u2019avan", 
        "lat": "40.4097", 
        "lng": "44.6431", 
        "country": "Armenia", 
        "iso2": "AM", 
        "admin_name": "Kotayk\u2019", 
        "capital": "", 
        "population": "25039", 
        "population_proper": "25039"
    }, 
    {
        "city": "Step\u2019anavan", 
        "lat": "41.0075", 
        "lng": "44.3867", 
        "country": "Armenia", 
        "iso2": "AM", 
        "admin_name": "Lorri", 
        "capital": "", 
        "population": "23782", 
        "population_proper": "23782"
    },
    {
        "city": "Luanda", 
        "lat": "-8.8383", 
        "lng": "13.2344", 
        "country": "Angola", 
        "iso2": "AO", 
        "admin_name": "Luanda", 
        "capital": "primary", 
        "population": "8417000", 
        "population_proper": "2165867"
    }, 
    {
        "city": "Huambo", 
        "lat": "-12.7667", 
        "lng": "15.7333", 
        "country": "Angola", 
        "iso2": "AO", 
        "admin_name": "Huambo", 
        "capital": "admin", 
        "population": "665564", 
        "population_proper": "665564"
    }, 
    {
        "city": "Cabinda", 
        "lat": "-5.5500", 
        "lng": "12.2000", 
        "country": "Angola", 
        "iso2": "AO", 
        "admin_name": "Cabinda", 
        "capital": "admin", 
        "population": "550000", 
        "population_proper": "550000"
    }, 
    {
        "city": "Benguela", 
        "lat": "-12.5500", 
        "lng": "13.4167", 
        "country": "Angola", 
        "iso2": "AO", 
        "admin_name": "Benguela", 
        "capital": "admin", 
        "population": "513000", 
        "population_proper": "513000"
    }, 
    {
        "city": "Lobito", 
        "lat": "-12.3700", 
        "lng": "13.5412", 
        "country": "Angola", 
        "iso2": "AO", 
        "admin_name": "Benguela", 
        "capital": "", 
        "population": "207932", 
        "population_proper": "133534"
    }, 
    {
        "city": "Mo\u00e7\u00e2medes", 
        "lat": "-15.1953", 
        "lng": "12.1508", 
        "country": "Angola", 
        "iso2": "AO", 
        "admin_name": "Namibe", 
        "capital": "admin", 
        "population": "162000", 
        "population_proper": "162000"
    }, 
    {
        "city": "Porto Amboim", 
        "lat": "-10.7183", 
        "lng": "13.7500", 
        "country": "Angola", 
        "iso2": "AO", 
        "admin_name": "Kwanza Sul", 
        "capital": "", 
        "population": "137000", 
        "population_proper": "137000"
    }, 
    {
        "city": "Malanje", 
        "lat": "-9.5400", 
        "lng": "16.3400", 
        "country": "Angola", 
        "iso2": "AO", 
        "admin_name": "Malanje", 
        "capital": "admin", 
        "population": "125856", 
        "population_proper": "87046"
    }, 
    {
        "city": "Cuito", 
        "lat": "-12.3800", 
        "lng": "16.9400", 
        "country": "Angola", 
        "iso2": "AO", 
        "admin_name": "Bi\u00e9", 
        "capital": "admin", 
        "population": "114286", 
        "population_proper": "113624"
    }, 
    {
        "city": "T\u00f4mbua", 
        "lat": "-15.8000", 
        "lng": "11.8500", 
        "country": "Angola", 
        "iso2": "AO", 
        "admin_name": "Namibe", 
        "capital": "", 
        "population": "90000", 
        "population_proper": "90000"
    },
    {
        "city": "Buenos Aires", 
        "lat": "-34.5997", 
        "lng": "-58.3819", 
        "country": "Argentina", 
        "iso2": "AR", 
        "admin_name": "Buenos Aires, Ciudad Aut\u00f3noma de", 
        "capital": "primary", 
        "population": "16157000", 
        "population_proper": "3054300"
    }, 
    {
        "city": "C\u00f3rdoba", 
        "lat": "-31.4167", 
        "lng": "-64.1833", 
        "country": "Argentina", 
        "iso2": "AR", 
        "admin_name": "C\u00f3rdoba", 
        "capital": "admin", 
        "population": "1329604", 
        "population_proper": "1329604"
    }, 
    {
        "city": "Rosario", 
        "lat": "-32.9575", 
        "lng": "-60.6394", 
        "country": "Argentina", 
        "iso2": "AR", 
        "admin_name": "Santa Fe", 
        "capital": "minor", 
        "population": "1193605", 
        "population_proper": "1193605"
    }, 
    {
        "city": "San Miguel de Tucum\u00e1n", 
        "lat": "-26.8167", 
        "lng": "-65.2167", 
        "country": "Argentina", 
        "iso2": "AR", 
        "admin_name": "Tucum\u00e1n", 
        "capital": "admin", 
        "population": "605767", 
        "population_proper": "605767"
    }, 
    {
        "city": "Mar del Plata", 
        "lat": "-38.0000", 
        "lng": "-57.5500", 
        "country": "Argentina", 
        "iso2": "AR", 
        "admin_name": "Buenos Aires", 
        "capital": "minor", 
        "population": "593337", 
        "population_proper": "593337"
    }, 
    {
        "city": "Salta", 
        "lat": "-24.7883", 
        "lng": "-65.4106", 
        "country": "Argentina", 
        "iso2": "AR", 
        "admin_name": "Salta", 
        "capital": "admin", 
        "population": "535303", 
        "population_proper": "535303"
    }, 
    {
        "city": "San Juan", 
        "lat": "-31.5375", 
        "lng": "-68.5364", 
        "country": "Argentina", 
        "iso2": "AR", 
        "admin_name": "San Juan", 
        "capital": "admin", 
        "population": "471389", 
        "population_proper": "471389"
    }, 
    {
        "city": "Lan\u00fas", 
        "lat": "-34.7000", 
        "lng": "-58.4000", 
        "country": "Argentina", 
        "iso2": "AR", 
        "admin_name": "Buenos Aires", 
        "capital": "minor", 
        "population": "459263", 
        "population_proper": "459263"
    }, 
    {
        "city": "Santa Fe", 
        "lat": "-31.6333", 
        "lng": "-60.7000", 
        "country": "Argentina", 
        "iso2": "AR", 
        "admin_name": "Santa Fe", 
        "capital": "admin", 
        "population": "405683", 
        "population_proper": "405683"
    }, 
    {
        "city": "Corrientes", 
        "lat": "-27.4833", 
        "lng": "-58.8167", 
        "country": "Argentina", 
        "iso2": "AR", 
        "admin_name": "Corrientes", 
        "capital": "admin", 
        "population": "352646", 
        "population_proper": "352646"
    },
    {
        "city": "Vienna", 
        "lat": "48.2083", 
        "lng": "16.3731", 
        "country": "Austria", 
        "iso2": "AT", 
        "admin_name": "Wien", 
        "capital": "primary", 
        "population": "1840573", 
        "population_proper": "1840573"
    }, 
    {
        "city": "Graz", 
        "lat": "47.0667", 
        "lng": "15.4333", 
        "country": "Austria", 
        "iso2": "AT", 
        "admin_name": "Steiermark", 
        "capital": "admin", 
        "population": "289440", 
        "population_proper": "289440"
    }, 
    {
        "city": "Linz", 
        "lat": "48.3000", 
        "lng": "14.2833", 
        "country": "Austria", 
        "iso2": "AT", 
        "admin_name": "Ober\u00f6sterreich", 
        "capital": "admin", 
        "population": "204846", 
        "population_proper": "204846"
    }, 
    {
        "city": "Salzburg", 
        "lat": "47.7972", 
        "lng": "13.0477", 
        "country": "Austria", 
        "iso2": "AT", 
        "admin_name": "Salzburg", 
        "capital": "admin", 
        "population": "154076", 
        "population_proper": "154076"
    }, 
    {
        "city": "Innsbruck", 
        "lat": "47.2683", 
        "lng": "11.3933", 
        "country": "Austria", 
        "iso2": "AT", 
        "admin_name": "Tirol", 
        "capital": "admin", 
        "population": "132493", 
        "population_proper": "132493"
    }, 
    {
        "city": "Klagenfurt", 
        "lat": "46.6167", 
        "lng": "14.3000", 
        "country": "Austria", 
        "iso2": "AT", 
        "admin_name": "K\u00e4rnten", 
        "capital": "admin", 
        "population": "101403", 
        "population_proper": "101403"
    }, 
    {
        "city": "Wiener Neustadt", 
        "lat": "47.8160", 
        "lng": "16.2500", 
        "country": "Austria", 
        "iso2": "AT", 
        "admin_name": "Nieder\u00f6sterreich", 
        "capital": "minor", 
        "population": "82762", 
        "population_proper": "38481"
    }, 
    {
        "city": "Villach", 
        "lat": "46.6167", 
        "lng": "13.8333", 
        "country": "Austria", 
        "iso2": "AT", 
        "admin_name": "K\u00e4rnten", 
        "capital": "minor", 
        "population": "61879", 
        "population_proper": "61879"
    }, 
    {
        "city": "Wels", 
        "lat": "48.1500", 
        "lng": "14.0167", 
        "country": "Austria", 
        "iso2": "AT", 
        "admin_name": "Ober\u00f6sterreich", 
        "capital": "minor", 
        "population": "61233", 
        "population_proper": "61233"
    }, 
    {
        "city": "Sankt P\u00f6lten", 
        "lat": "48.2000", 
        "lng": "15.6167", 
        "country": "Austria", 
        "iso2": "AT", 
        "admin_name": "Nieder\u00f6sterreich", 
        "capital": "admin", 
        "population": "55514", 
        "population_proper": "55514"
    },
    {
        "city": "Sydney", 
        "lat": "-33.8650", 
        "lng": "151.2094", 
        "country": "Australia", 
        "iso2": "AU", 
        "admin_name": "New South Wales", 
        "capital": "admin", 
        "population": "5312163", 
        "population_proper": "4840600"
    }, 
    {
        "city": "Melbourne", 
        "lat": "-37.8136", 
        "lng": "144.9631", 
        "country": "Australia", 
        "iso2": "AU", 
        "admin_name": "Victoria", 
        "capital": "admin", 
        "population": "5078193", 
        "population_proper": "4529500"
    }, 
    {
        "city": "Brisbane", 
        "lat": "-27.4678", 
        "lng": "153.0281", 
        "country": "Australia", 
        "iso2": "AU", 
        "admin_name": "Queensland", 
        "capital": "admin", 
        "population": "2514184", 
        "population_proper": "2360241"
    }, 
    {
        "city": "Perth", 
        "lat": "-31.9522", 
        "lng": "115.8589", 
        "country": "Australia", 
        "iso2": "AU", 
        "admin_name": "Western Australia", 
        "capital": "admin", 
        "population": "2059484", 
        "population_proper": "2039200"
    }, 
    {
        "city": "Adelaide", 
        "lat": "-34.9289", 
        "lng": "138.6011", 
        "country": "Australia", 
        "iso2": "AU", 
        "admin_name": "South Australia", 
        "capital": "admin", 
        "population": "1345777", 
        "population_proper": "1295714"
    }, 
    {
        "city": "Gold Coast", 
        "lat": "-28.0167", 
        "lng": "153.4000", 
        "country": "Australia", 
        "iso2": "AU", 
        "admin_name": "Queensland", 
        "capital": "", 
        "population": "679127", 
        "population_proper": "638090"
    }, 
    {
        "city": "Canberra", 
        "lat": "-35.2931", 
        "lng": "149.1269", 
        "country": "Australia", 
        "iso2": "AU", 
        "admin_name": "Australian Capital Territory", 
        "capital": "primary", 
        "population": "426704", 
        "population_proper": "381488"
    }, 
    {
        "city": "Newcastle", 
        "lat": "-32.9167", 
        "lng": "151.7500", 
        "country": "Australia", 
        "iso2": "AU", 
        "admin_name": "New South Wales", 
        "capital": "", 
        "population": "322278", 
        "population_proper": "152984"
    }, 
    {
        "city": "Wollongong", 
        "lat": "-34.4331", 
        "lng": "150.8831", 
        "country": "Australia", 
        "iso2": "AU", 
        "admin_name": "New South Wales", 
        "capital": "", 
        "population": "302739", 
        "population_proper": "289236"
    }, 
    {
        "city": "Geelong", 
        "lat": "-38.1500", 
        "lng": "144.3500", 
        "country": "Australia", 
        "iso2": "AU", 
        "admin_name": "Victoria", 
        "capital": "", 
        "population": "263280", 
        "population_proper": "191440"
    }, 
    {
        "city": "Hobart", 
        "lat": "-42.8806", 
        "lng": "147.3250", 
        "country": "Australia", 
        "iso2": "AU", 
        "admin_name": "Tasmania", 
        "capital": "admin", 
        "population": "240342", 
        "population_proper": "222356"
    },
    {
        "city": "Oranjestad", 
        "lat": "12.5186", 
        "lng": "-70.0358", 
        "country": "Aruba", 
        "iso2": "AW", 
        "admin_name": "", 
        "capital": "", 
        "population": "34980", 
        "population_proper": "34980"
    }, 
    {
        "city": "Tanki Leendert", 
        "lat": "12.5391", 
        "lng": "-70.0200", 
        "country": "Aruba", 
        "iso2": "AW", 
        "admin_name": "", 
        "capital": "", 
        "population": "21500", 
        "population_proper": ""
    }, 
    {
        "city": "San Nicolas", 
        "lat": "12.4362", 
        "lng": "-69.9071", 
        "country": "Aruba", 
        "iso2": "AW", 
        "admin_name": "", 
        "capital": "", 
        "population": "15200", 
        "population_proper": ""
    }, 
    {
        "city": "Paradera", 
        "lat": "12.5351", 
        "lng": "-70.0069", 
        "country": "Aruba", 
        "iso2": "AW", 
        "admin_name": "", 
        "capital": "", 
        "population": "1200", 
        "population_proper": ""
    }, 
    {
        "city": "Brasil", 
        "lat": "12.4480", 
        "lng": "-69.9254", 
        "country": "Aruba", 
        "iso2": "AW", 
        "admin_name": "", 
        "capital": "", 
        "population": "", 
        "population_proper": ""
    }, 
    {
        "city": "Tanki Flip", 
        "lat": "12.5459", 
        "lng": "-70.0307", 
        "country": "Aruba", 
        "iso2": "AW", 
        "admin_name": "", 
        "capital": "", 
        "population": "", 
        "population_proper": ""
    }, 
 
    {
        "city": "Pos Chiquito", 
        "lat": "12.4650", 
        "lng": "-69.9623", 
        "country": "Aruba", 
        "iso2": "AW", 
        "admin_name": "", 
        "capital": "", 
        "population": "", 
        "population_proper": ""
    }, 
    {
        "city": "Savaneta", 
        "lat": "12.4503", 
        "lng": "-69.9381", 
        "country": "Aruba", 
        "iso2": "AW", 
        "admin_name": "", 
        "capital": "", 
        "population": "11500", 
        "population_proper": ""
    }, 
    {
        "city": "Sint Anna", 
        "lat": "12.5667", 
        "lng": "-70.0333", 
        "country": "Aruba", 
        "iso2": "AW", 
        "admin_name": "", 
        "capital": "", 
        "population": "", 
        "population_proper": ""
    }, 
    {
        "city": "Santa Cruz", 
        "lat": "12.5095", 
        "lng": "-69.9810", 
        "country": "Aruba", 
        "iso2": "AW", 
        "admin_name": "", 
        "capital": "", 
        "population": "12900", 
        "population_proper": ""
    },
    {
        "city": "Baku", 
        "lat": "40.3667", 
        "lng": "49.8352", 
        "country": "Azerbaijan", 
        "iso2": "AZ", 
        "admin_name": "Bak\u0131", 
        "capital": "primary", 
        "population": "2181800", 
        "population_proper": "2181800"
    }, 
    {
        "city": "Sumqay\u0131t", 
        "lat": "40.5917", 
        "lng": "49.6397", 
        "country": "Azerbaijan", 
        "iso2": "AZ", 
        "admin_name": "Sumqay\u0131t", 
        "capital": "admin", 
        "population": "341200", 
        "population_proper": "341200"
    }, 
    {
        "city": "G\u0259nc\u0259", 
        "lat": "40.6828", 
        "lng": "46.3606", 
        "country": "Azerbaijan", 
        "iso2": "AZ", 
        "admin_name": "G\u0259nc\u0259", 
        "capital": "admin", 
        "population": "331400", 
        "population_proper": "331400"
    }, 
    {
        "city": "Ming\u0259\u00e7evir", 
        "lat": "40.7700", 
        "lng": "47.0489", 
        "country": "Azerbaijan", 
        "iso2": "AZ", 
        "admin_name": "Ming\u0259\u00e7evir", 
        "capital": "admin", 
        "population": "98800", 
        "population_proper": "98800"
    }, 
    {
        "city": "X\u0131rdalan", 
        "lat": "40.4486", 
        "lng": "49.7564", 
        "country": "Azerbaijan", 
        "iso2": "AZ", 
        "admin_name": "Ab\u015feron", 
        "capital": "admin", 
        "population": "95200", 
        "population_proper": "95200"
    }, 
    {
        "city": "Qara\u00e7uxur", 
        "lat": "40.3969", 
        "lng": "49.9733", 
        "country": "Azerbaijan", 
        "iso2": "AZ", 
        "admin_name": "Bak\u0131", 
        "capital": "", 
        "population": "85900", 
        "population_proper": "85900"
    }, 
    {
        "city": "Nax\u00e7\u0131van", 
        "lat": "39.2089", 
        "lng": "45.4122", 
        "country": "Azerbaijan", 
        "iso2": "AZ", 
        "admin_name": "Nax\u00e7\u0131van", 
        "capital": "admin", 
        "population": "74500", 
        "population_proper": "74500"
    }, 
    {
        "city": "\u015e\u0259ki", 
        "lat": "41.1919", 
        "lng": "47.1706", 
        "country": "Azerbaijan", 
        "iso2": "AZ", 
        "admin_name": "\u015e\u0259ki", 
        "capital": "admin", 
        "population": "68360", 
        "population_proper": "68360"
    }, 
    {
        "city": "Yevlax", 
        "lat": "40.6172", 
        "lng": "47.1500", 
        "country": "Azerbaijan", 
        "iso2": "AZ", 
        "admin_name": "Yevlax", 
        "capital": "admin", 
        "population": "59036", 
        "population_proper": "59036"
    }, 
    {
        "city": "\u015eirvan", 
        "lat": "39.9319", 
        "lng": "48.9203", 
        "country": "Azerbaijan", 
        "iso2": "AZ", 
        "admin_name": "\u015eirvan", 
        "capital": "", 
        "population": "58253", 
        "population_proper": "58253"
    },
    {
        "city": "Sarajevo", 
        "lat": "43.8667", 
        "lng": "18.4167", 
        "country": "Bosnia And Herzegovina", 
        "iso2": "BA", 
        "admin_name": "Bosnia and Herzegovina, Federation of", 
        "capital": "primary", 
        "population": "275524", 
        "population_proper": "275524"
    }, 
    {
        "city": "Banja Luka", 
        "lat": "44.7667", 
        "lng": "17.1833", 
        "country": "Bosnia And Herzegovina", 
        "iso2": "BA", 
        "admin_name": "Srpska, Republika", 
        "capital": "admin", 
        "population": "199191", 
        "population_proper": "199191"
    }, 
    {
        "city": "Mostar", 
        "lat": "43.3494", 
        "lng": "17.8125", 
        "country": "Bosnia And Herzegovina", 
        "iso2": "BA", 
        "admin_name": "Bosnia and Herzegovina, Federation of", 
        "capital": "minor", 
        "population": "163067", 
        "population_proper": "104518"
    }, 
    {
        "city": "Bijeljina", 
        "lat": "44.7500", 
        "lng": "19.2167", 
        "country": "Bosnia And Herzegovina", 
        "iso2": "BA", 
        "admin_name": "Srpska, Republika", 
        "capital": "minor", 
        "population": "114663", 
        "population_proper": "114663"
    }, 
    {
        "city": "Tuzla", 
        "lat": "44.5381", 
        "lng": "18.6761", 
        "country": "Bosnia And Herzegovina", 
        "iso2": "BA", 
        "admin_name": "Bosnia and Herzegovina, Federation of", 
        "capital": "minor", 
        "population": "110979", 
        "population_proper": "110979"
    }, 
    {
        "city": "Prijedor", 
        "lat": "44.9667", 
        "lng": "16.7000", 
        "country": "Bosnia And Herzegovina", 
        "iso2": "BA", 
        "admin_name": "Srpska, Republika", 
        "capital": "minor", 
        "population": "89397", 
        "population_proper": "89397"
    }, 
    {
        "city": "Zenica", 
        "lat": "44.2039", 
        "lng": "17.9078", 
        "country": "Bosnia And Herzegovina", 
        "iso2": "BA", 
        "admin_name": "Bosnia and Herzegovina, Federation of", 
        "capital": "minor", 
        "population": "70553", 
        "population_proper": "70553"
    }, 
    {
        "city": "Doboj", 
        "lat": "44.7333", 
        "lng": "18.1333", 
        "country": "Bosnia And Herzegovina", 
        "iso2": "BA", 
        "admin_name": "Srpska, Republika", 
        "capital": "minor", 
        "population": "68514", 
        "population_proper": "68514"
    }, 
    {
        "city": "Zvornik", 
        "lat": "44.3833", 
        "lng": "19.1000", 
        "country": "Bosnia And Herzegovina", 
        "iso2": "BA", 
        "admin_name": "Srpska, Republika", 
        "capital": "minor", 
        "population": "63686", 
        "population_proper": "63686"
    }, 
    {
        "city": "Sanski Most", 
        "lat": "44.7667", 
        "lng": "16.6667", 
        "country": "Bosnia And Herzegovina", 
        "iso2": "BA", 
        "admin_name": "Bosnia and Herzegovina, Federation of", 
        "capital": "minor", 
        "population": "47359", 
        "population_proper": "47359"
    },
    {
        "city": "Bridgetown", 
        "lat": "13.0975", 
        "lng": "-59.6167", 
        "country": "Barbados", 
        "iso2": "BB", 
        "admin_name": "Saint Michael", 
        "capital": "primary", 
        "population": "110000", 
        "population_proper": "110000"
    }, 
    {
        "city": "Speightstown", 
        "lat": "13.251", 
        "lng": "-59.644", 
        "country": "Barbados", 
        "iso2": "BB", 
        "admin_name": "Saint Peter", 
        "capital": "", 
        "population": "3634", 
        "population_proper": ""
    }, 
    {
        "city": "Oistins", 
        "lat": "13.071", 
        "lng": "-59.546", 
        "country": "Barbados", 
        "iso2": "BB", 
        "admin_name": "Christ Church", 
        "capital": "", 
        "population": "2285", 
        "population_proper": ""
    }, 
    {
        "city": "Bathsheba", 
        "lat": "13.211", 
        "lng": "-59.526", 
        "country": "Barbados", 
        "iso2": "BB", 
        "admin_name": "Saint Joseph", 
        "capital": "", 
        "population": "", 
        "population_proper": ""
    }, 
    {
        "city": "Holetown", 
        "lat": "13.187", 
        "lng": "-59.638", 
        "country": "Barbados", 
        "iso2": "BB", 
        "admin_name": "Saint James", 
        "capital": "", 
        "population": "1350", 
        "population_proper": ""
    }, 
    {
        "city": "Crane", 
        "lat": "13.105", 
        "lng": "-59.449", 
        "country": "Barbados", 
        "iso2": "BB", 
        "admin_name": "Saint Philip", 
        "capital": "", 
        "population": "935", 
        "population_proper": ""
    }, 
    {
        "city": "Crab Hill", 
        "lat": "13.32", 
        "lng": "-59.638", 
        "country": "Barbados", 
        "iso2": "BB", 
        "admin_name": "Saint Lucy", 
        "capital": "", 
        "population": "727", 
        "population_proper": ""
    }, 
    {
        "city": "Greenland", 
        "lat": "13.258", 
        "lng": "-59.578", 
        "country": "Barbados", 
        "iso2": "BB", 
        "admin_name": "Saint Andrew", 
        "capital": "", 
        "population": "623", 
        "population_proper": ""
    }, 
    {
        "city": "Blackmans", 
        "lat": "13.185", 
        "lng": "-59.545", 
        "country": "Barbados", 
        "iso2": "BB", 
        "admin_name": "Saint Joseph", 
        "capital": "", 
        "population": "623", 
        "population_proper": ""
    }, 
    {
        "city": "Hillaby", 
        "lat": "13.1164", 
        "lng": "-59.5884", 
        "country": "Barbados", 
        "iso2": "BB", 
        "admin_name": "Saint Andrew", 
        "capital": "", 
        "population": "519", 
        "population_proper": ""
    },
    {
        "city": "Dhaka", 
        "lat": "23.7161", 
        "lng": "90.3961", 
        "country": "Bangladesh", 
        "iso2": "BD", 
        "admin_name": "Dhaka", 
        "capital": "primary", 
        "population": "15443000", 
        "population_proper": "8906039"
    }, 
    {
        "city": "Chattogram", 
        "lat": "22.3350", 
        "lng": "91.8325", 
        "country": "Bangladesh", 
        "iso2": "BD", 
        "admin_name": "Chittagong", 
        "capital": "admin", 
        "population": "2581643", 
        "population_proper": "2581643"
    }, 
    {
        "city": "Khulna", 
        "lat": "22.8167", 
        "lng": "89.5500", 
        "country": "Bangladesh", 
        "iso2": "BD", 
        "admin_name": "Khulna", 
        "capital": "admin", 
        "population": "1311100", 
        "population_proper": "1311100"
    }, 
    {
        "city": "Sylhet", 
        "lat": "24.9000", 
        "lng": "91.8667", 
        "country": "Bangladesh", 
        "iso2": "BD", 
        "admin_name": "Sylhet", 
        "capital": "admin", 
        "population": "479837", 
        "population_proper": "479837"
    }, 
    {
        "city": "R\u0101jsh\u0101hi", 
        "lat": "24.3667", 
        "lng": "88.6000", 
        "country": "Bangladesh", 
        "iso2": "BD", 
        "admin_name": "R\u0101jsh\u0101hi", 
        "capital": "admin", 
        "population": "448087", 
        "population_proper": "448087"
    }, 
    {
        "city": "Comilla", 
        "lat": "23.4704", 
        "lng": "91.1700", 
        "country": "Bangladesh", 
        "iso2": "BD", 
        "admin_name": "Chittagong", 
        "capital": "", 
        "population": "389411", 
        "population_proper": "389411"
    }, 
    {
        "city": "Mymensingh", 
        "lat": "24.7504", 
        "lng": "90.3800", 
        "country": "Bangladesh", 
        "iso2": "BD", 
        "admin_name": "Mymensingh", 
        "capital": "admin", 
        "population": "330126", 
        "population_proper": "330126"
    }, 
    {
        "city": "Rangpur", 
        "lat": "25.7500", 
        "lng": "89.2500", 
        "country": "Bangladesh", 
        "iso2": "BD", 
        "admin_name": "Rangpur", 
        "capital": "admin", 
        "population": "294265", 
        "population_proper": "294265"
    }, 
    {
        "city": "Br\u0101hmanb\u0101ria", 
        "lat": "23.9667", 
        "lng": "91.1000", 
        "country": "Bangladesh", 
        "iso2": "BD", 
        "admin_name": "Chittagong", 
        "capital": "", 
        "population": "268279", 
        "population_proper": "268279"
    }, 
    {
        "city": "Jessore", 
        "lat": "23.1704", 
        "lng": "89.2000", 
        "country": "Bangladesh", 
        "iso2": "BD", 
        "admin_name": "Khulna", 
        "capital": "", 
        "population": "243987", 
        "population_proper": "243987"
    },
    {
        "city": "Antwerp", 
        "lat": "51.2211", 
        "lng": "4.3997", 
        "country": "Belgium", 
        "iso2": "BE", 
        "admin_name": "Flanders", 
        "capital": "minor", 
        "population": "529247", 
        "population_proper": "529247"
    }, 
    {
        "city": "Gent", 
        "lat": "51.0536", 
        "lng": "3.7253", 
        "country": "Belgium", 
        "iso2": "BE", 
        "admin_name": "Flanders", 
        "capital": "minor", 
        "population": "262219", 
        "population_proper": "262219"
    }, 
    {
        "city": "Charleroi", 
        "lat": "50.4167", 
        "lng": "4.4442", 
        "country": "Belgium", 
        "iso2": "BE", 
        "admin_name": "Wallonia", 
        "capital": "minor", 
        "population": "201816", 
        "population_proper": "201816"
    }, 
    {
        "city": "Li\u00e8ge", 
        "lat": "50.6250", 
        "lng": "5.5907", 
        "country": "Belgium", 
        "iso2": "BE", 
        "admin_name": "Wallonia", 
        "capital": "minor", 
        "population": "197885", 
        "population_proper": "197885"
    }, 
    {
        "city": "Brussels", 
        "lat": "50.8467", 
        "lng": "4.3517", 
        "country": "Belgium", 
        "iso2": "BE", 
        "admin_name": "Brussels-Capital Region", 
        "capital": "primary", 
        "population": "185103", 
        "population_proper": "185103"
    }, 
    {
        "city": "Schaarbeek", 
        "lat": "50.8675", 
        "lng": "4.3736", 
        "country": "Belgium", 
        "iso2": "BE", 
        "admin_name": "Brussels-Capital Region", 
        "capital": "", 
        "population": "133010", 
        "population_proper": "133010"
    }, 
    {
        "city": "Anderlecht", 
        "lat": "50.8392", 
        "lng": "4.3297", 
        "country": "Belgium", 
        "iso2": "BE", 
        "admin_name": "Brussels-Capital Region", 
        "capital": "", 
        "population": "120887", 
        "population_proper": "120887"
    }, 
    {
        "city": "Bruges", 
        "lat": "51.2089", 
        "lng": "3.2242", 
        "country": "Belgium", 
        "iso2": "BE", 
        "admin_name": "Flanders", 
        "capital": "minor", 
        "population": "118053", 
        "population_proper": "118053"
    }, 
    {
        "city": "Namur", 
        "lat": "50.4667", 
        "lng": "4.8667", 
        "country": "Belgium", 
        "iso2": "BE", 
        "admin_name": "Wallonia", 
        "capital": "admin", 
        "population": "110939", 
        "population_proper": "110939"
    }, 
    {
        "city": "Mons", 
        "lat": "50.4550", 
        "lng": "3.9520", 
        "country": "Belgium", 
        "iso2": "BE", 
        "admin_name": "Wallonia", 
        "capital": "minor", 
        "population": "95299", 
        "population_proper": "95299"
    },
    {
        "city": "Ouagadougou", 
        "lat": "12.3572", 
        "lng": "-1.5353", 
        "country": "Burkina Faso", 
        "iso2": "BF", 
        "admin_name": "Centre", 
        "capital": "primary", 
        "population": "1626950", 
        "population_proper": "1626950"
    }, 
    {
        "city": "Bobo-Dioulasso", 
        "lat": "11.1833", 
        "lng": "-4.2833", 
        "country": "Burkina Faso", 
        "iso2": "BF", 
        "admin_name": "Hauts-Bassins", 
        "capital": "admin", 
        "population": "360106", 
        "population_proper": "331964"
    }, 
    {
        "city": "Koudougou", 
        "lat": "12.2500", 
        "lng": "-2.3667", 
        "country": "Burkina Faso", 
        "iso2": "BF", 
        "admin_name": "Centre-Ouest", 
        "capital": "admin", 
        "population": "87347", 
        "population_proper": "83331"
    }, 
    {
        "city": "Ouahigouya", 
        "lat": "13.5833", 
        "lng": "-2.4167", 
        "country": "Burkina Faso", 
        "iso2": "BF", 
        "admin_name": "Nord", 
        "capital": "admin", 
        "population": "79504", 
        "population_proper": "61096"
    }, 
    {
        "city": "Banfora", 
        "lat": "10.6308", 
        "lng": "-4.7589", 
        "country": "Burkina Faso", 
        "iso2": "BF", 
        "admin_name": "Cascades", 
        "capital": "admin", 
        "population": "60288", 
        "population_proper": "31519"
    }, 
    {
        "city": "Kaya", 
        "lat": "13.0904", 
        "lng": "-1.0900", 
        "country": "Burkina Faso", 
        "iso2": "BF", 
        "admin_name": "Centre-Nord", 
        "capital": "admin", 
        "population": "40017", 
        "population_proper": "39229"
    }, 
    {
        "city": "D\u00e9dougou", 
        "lat": "12.4667", 
        "lng": "-3.4667", 
        "country": "Burkina Faso", 
        "iso2": "BF", 
        "admin_name": "Boucle du Mouhoun", 
        "capital": "admin", 
        "population": "38862", 
        "population_proper": "38862"
    }, 
    {
        "city": "Tenkodogo", 
        "lat": "11.7804", 
        "lng": "-0.3697", 
        "country": "Burkina Faso", 
        "iso2": "BF", 
        "admin_name": "Centre-Est", 
        "capital": "admin", 
        "population": "38108", 
        "population_proper": "37658"
    }, 
    {
        "city": "Dori", 
        "lat": "14.0500", 
        "lng": "0.0500", 
        "country": "Burkina Faso", 
        "iso2": "BF", 
        "admin_name": "Sahel", 
        "capital": "admin", 
        "population": "37806", 
        "population_proper": "37806"
    }, 
    {
        "city": "R\u00e9o", 
        "lat": "12.3335", 
        "lng": "-2.4669", 
        "country": "Burkina Faso", 
        "iso2": "BF", 
        "admin_name": "Centre-Ouest", 
        "capital": "minor", 
        "population": "37535", 
        "population_proper": "37535"
    },
    {
        "city": "Sofia", 
        "lat": "42.6975", 
        "lng": "23.3241", 
        "country": "Bulgaria", 
        "iso2": "BG", 
        "admin_name": "Sofia-Grad", 
        "capital": "primary", 
        "population": "1355142", 
        "population_proper": "1355142"
    }, 
    {
        "city": "Plovdiv", 
        "lat": "42.1433", 
        "lng": "24.7489", 
        "country": "Bulgaria", 
        "iso2": "BG", 
        "admin_name": "Plovdiv", 
        "capital": "admin", 
        "population": "384088", 
        "population_proper": "384088"
    }, 
    {
        "city": "Varna", 
        "lat": "43.2078", 
        "lng": "27.9169", 
        "country": "Bulgaria", 
        "iso2": "BG", 
        "admin_name": "Varna", 
        "capital": "admin", 
        "population": "369162", 
        "population_proper": "369162"
    }, 
    {
        "city": "Burgas", 
        "lat": "42.5000", 
        "lng": "27.4667", 
        "country": "Bulgaria", 
        "iso2": "BG", 
        "admin_name": "Burgas", 
        "capital": "admin", 
        "population": "226868", 
        "population_proper": "226868"
    }, 
    {
        "city": "Ruse", 
        "lat": "43.8475", 
        "lng": "25.9544", 
        "country": "Bulgaria", 
        "iso2": "BG", 
        "admin_name": "Ruse", 
        "capital": "admin", 
        "population": "163712", 
        "population_proper": "163712"
    }, 
    {
        "city": "Stara Zagora", 
        "lat": "42.4247", 
        "lng": "25.6256", 
        "country": "Bulgaria", 
        "iso2": "BG", 
        "admin_name": "Stara Zagora", 
        "capital": "admin", 
        "population": "158668", 
        "population_proper": "158668"
    }, 
    {
        "city": "Pleven", 
        "lat": "43.4078", 
        "lng": "24.6203", 
        "country": "Bulgaria", 
        "iso2": "BG", 
        "admin_name": "Pleven", 
        "capital": "admin", 
        "population": "123588", 
        "population_proper": "123588"
    }, 
    {
        "city": "Sliven", 
        "lat": "42.6808", 
        "lng": "26.3164", 
        "country": "Bulgaria", 
        "iso2": "BG", 
        "admin_name": "Sliven", 
        "capital": "admin", 
        "population": "107570", 
        "population_proper": "107570"
    }, 
    {
        "city": "Dobrich", 
        "lat": "43.5667", 
        "lng": "27.8333", 
        "country": "Bulgaria", 
        "iso2": "BG", 
        "admin_name": "Dobrich", 
        "capital": "admin", 
        "population": "104530", 
        "population_proper": "104530"
    }, 
    {
        "city": "Shumen", 
        "lat": "43.2700", 
        "lng": "26.9244", 
        "country": "Bulgaria", 
        "iso2": "BG", 
        "admin_name": "Shumen", 
        "capital": "admin", 
        "population": "97719", 
        "population_proper": "97719"
    },
    {
        "city": "Manama", 
        "lat": "26.2167", 
        "lng": "50.5831", 
        "country": "Bahrain", 
        "iso2": "BH", 
        "admin_name": "Al \u2018\u0100\u015fimah", 
        "capital": "primary", 
        "population": "157474", 
        "population_proper": "157474"
    }, 
    {
        "city": "Al Mu\u1e29arraq", 
        "lat": "26.2500", 
        "lng": "50.6167", 
        "country": "Bahrain", 
        "iso2": "BH", 
        "admin_name": "Al Mu\u1e29arraq", 
        "capital": "", 
        "population": "75000", 
        "population_proper": "75000"
    }, 
    {
        "city": "Mad\u012bnat \u1e28amad", 
        "lat": "26.1128", 
        "lng": "50.5139", 
        "country": "Bahrain", 
        "iso2": "BH", 
        "admin_name": "Ash Sham\u0101l\u012byah", 
        "capital": "", 
        "population": "52700", 
        "population_proper": "52700"
    }, 
    {
        "city": "Mad\u012bnat \u2018\u012as\u00e1", 
        "lat": "26.1736", 
        "lng": "50.5478", 
        "country": "Bahrain", 
        "iso2": "BH", 
        "admin_name": "Al Jan\u016bb\u012byah", 
        "capital": "", 
        "population": "40000", 
        "population_proper": "40000"
    }, 
    {
        "city": "Kafl\u0101n", 
        "lat": "26.1833", 
        "lng": "50.5833", 
        "country": "Bahrain", 
        "iso2": "BH", 
        "admin_name": "", 
        "capital": "", 
        "population": "", 
        "population_proper": ""
    }, 
    {
        "city": "Karb\u0101b\u0101d", 
        "lat": "26.2303", 
        "lng": "50.5294", 
        "country": "Bahrain", 
        "iso2": "BH", 
        "admin_name": "Al \u2018\u0100\u015fimah", 
        "capital": "", 
        "population": "", 
        "population_proper": ""
    }, 
    {
        "city": "Jabalat \u1e28abash\u012b", 
        "lat": "26.2172", 
        "lng": "50.5275", 
        "country": "Bahrain", 
        "iso2": "BH", 
        "admin_name": "Ash Sham\u0101l\u012byah", 
        "capital": "", 
        "population": "", 
        "population_proper": ""
    }, 
    {
        "city": "\u2018Ayn ad D\u0101r", 
        "lat": "26.2167", 
        "lng": "50.5333", 
        "country": "Bahrain", 
        "iso2": "BH", 
        "admin_name": "Al \u2018\u0100\u015fimah", 
        "capital": "", 
        "population": "", 
        "population_proper": ""
    }, 
    {
        "city": "\u1e28illat \u2018Abd a\u015f \u015e\u0101li\u1e29", 
        "lat": "26.2214", 
        "lng": "50.5167", 
        "country": "Bahrain", 
        "iso2": "BH", 
        "admin_name": "Ash Sham\u0101l\u012byah", 
        "capital": "", 
        "population": "", 
        "population_proper": ""
    }, 
    {
        "city": "Al Muqsh\u0101\u2018", 
        "lat": "26.2197", 
        "lng": "50.5231", 
        "country": "Bahrain", 
        "iso2": "BH", 
        "admin_name": "Al \u2018\u0100\u015fimah", 
        "capital": "", 
        "population": "", 
        "population_proper": ""
    },
    {
        "city": "Bujumbura", 
        "lat": "-3.3825", 
        "lng": "29.3611", 
        "country": "Burundi", 
        "iso2": "BI", 
        "admin_name": "Bujumbura Mairie", 
        "capital": "primary", 
        "population": "658859", 
        "population_proper": "658859"
    }, 
    {
        "city": "Gitega", 
        "lat": "-3.4264", 
        "lng": "29.9306", 
        "country": "Burundi", 
        "iso2": "BI", 
        "admin_name": "Gitega", 
        "capital": "primary", 
        "population": "41944", 
        "population_proper": "41944"
    }, 
    {
        "city": "Ngozi", 
        "lat": "-2.9000", 
        "lng": "29.8167", 
        "country": "Burundi", 
        "iso2": "BI", 
        "admin_name": "Ngozi", 
        "capital": "admin", 
        "population": "39884", 
        "population_proper": "39884"
    }, 
    {
        "city": "Kayanza", 
        "lat": "-2.9221", 
        "lng": "29.6293", 
        "country": "Burundi", 
        "iso2": "BI", 
        "admin_name": "Kayanza", 
        "capital": "admin", 
        "population": "21767", 
        "population_proper": "21767"
    }, 
    {
        "city": "Rutana", 
        "lat": "-3.9310", 
        "lng": "29.9930", 
        "country": "Burundi", 
        "iso2": "BI", 
        "admin_name": "Rutana", 
        "capital": "admin", 
        "population": "20893", 
        "population_proper": "20893"
    }, 
    {
        "city": "Bubanza", 
        "lat": "-3.0833", 
        "lng": "29.4000", 
        "country": "Burundi", 
        "iso2": "BI", 
        "admin_name": "Bubanza", 
        "capital": "admin", 
        "population": "20031", 
        "population_proper": "20031"
    }, 
    {
        "city": "Karuzi", 
        "lat": "-3.1000", 
        "lng": "30.1630", 
        "country": "Burundi", 
        "iso2": "BI", 
        "admin_name": "Karuzi", 
        "capital": "admin", 
        "population": "10705", 
        "population_proper": "10705"
    }, 
    {
        "city": "Kirundo", 
        "lat": "-2.5833", 
        "lng": "30.1000", 
        "country": "Burundi", 
        "iso2": "BI", 
        "admin_name": "Kirundo", 
        "capital": "admin", 
        "population": "10024", 
        "population_proper": "10024"
    }, 
    {
        "city": "Muyinga", 
        "lat": "-2.8500", 
        "lng": "30.3333", 
        "country": "Burundi", 
        "iso2": "BI", 
        "admin_name": "Muyinga", 
        "capital": "admin", 
        "population": "9609", 
        "population_proper": "9609"
    }, 
    {
        "city": "Makamba", 
        "lat": "-4.1333", 
        "lng": "29.8000", 
        "country": "Burundi", 
        "iso2": "BI", 
        "admin_name": "Makamba", 
        "capital": "admin", 
        "population": "9396", 
        "population_proper": "9396"
    },
    {
        "city": "Cotonou", 
        "lat": "6.4000", 
        "lng": "2.5200", 
        "country": "Benin", 
        "iso2": "BJ", 
        "admin_name": "Littoral", 
        "capital": "admin", 
        "population": "762000", 
        "population_proper": "690584"
    }, 
    {
        "city": "Porto-Novo", 
        "lat": "6.4833", 
        "lng": "2.6167", 
        "country": "Benin", 
        "iso2": "BJ", 
        "admin_name": "Ou\u00e9m\u00e9", 
        "capital": "primary", 
        "population": "300000", 
        "population_proper": "234168"
    }, 
    {
        "city": "Djougou", 
        "lat": "9.7004", 
        "lng": "1.6800", 
        "country": "Benin", 
        "iso2": "BJ", 
        "admin_name": "Donga", 
        "capital": "admin", 
        "population": "202810", 
        "population_proper": "102607"
    }, 
    {
        "city": "Parakou", 
        "lat": "9.3400", 
        "lng": "2.6200", 
        "country": "Benin", 
        "iso2": "BJ", 
        "admin_name": "Borgou", 
        "capital": "admin", 
        "population": "188853", 
        "population_proper": "163753"
    }, 
    {
        "city": "Kandi", 
        "lat": "11.1304", 
        "lng": "2.9400", 
        "country": "Benin", 
        "iso2": "BJ", 
        "admin_name": "Alibori", 
        "capital": "admin", 
        "population": "109701", 
        "population_proper": "37265"
    }, 
    {
        "city": "Lokossa", 
        "lat": "6.6150", 
        "lng": "1.7150", 
        "country": "Benin", 
        "iso2": "BJ", 
        "admin_name": "Mono", 
        "capital": "admin", 
        "population": "86971", 
        "population_proper": "86971"
    }, 
    {
        "city": "Ouidah", 
        "lat": "6.3604", 
        "lng": "2.0900", 
        "country": "Benin", 
        "iso2": "BJ", 
        "admin_name": "Atlantique", 
        "capital": "admin", 
        "population": "83503", 
        "population_proper": "83503"
    }, 
    {
        "city": "Abomey", 
        "lat": "7.1853", 
        "lng": "1.9914", 
        "country": "Benin", 
        "iso2": "BJ", 
        "admin_name": "Zou", 
        "capital": "admin", 
        "population": "82154", 
        "population_proper": "82154"
    }, 
    {
        "city": "Natitingou", 
        "lat": "10.3204", 
        "lng": "1.3900", 
        "country": "Benin", 
        "iso2": "BJ", 
        "admin_name": "Atacora", 
        "capital": "admin", 
        "population": "80892", 
        "population_proper": "49821"
    }, 
    {
        "city": "Dogbo", 
        "lat": "6.8167", 
        "lng": "1.7833", 
        "country": "Benin", 
        "iso2": "BJ", 
        "admin_name": "Couffo", 
        "capital": "admin", 
        "population": "", 
        "population_proper": ""
    },
    {
        "city": "Saint George", 
        "lat": "32.382", 
        "lng": "-64.678", 
        "country": "Bermuda", 
        "iso2": "BM", 
        "admin_name": "Saint George", 
        "capital": "", 
        "population": "1896", 
        "population_proper": "13500"
    }, 
    {
        "city": "Hamilton", 
        "lat": "32.295", 
        "lng": "-64.783", 
        "country": "Bermuda", 
        "iso2": "BM", 
        "admin_name": "Hamilton city", 
        "capital": "", 
        "population": "", 
        "population_proper": ""
    }, 
    {
        "city": "Cross Bay", 
        "lat": "32.253", 
        "lng": "-64.839", 
        "country": "Bermuda", 
        "iso2": "BM", 
        "admin_name": "Southampton", 
        "capital": "", 
        "population": "135", 
        "population_proper": ""
    }, 
    {
        "city": "North Shore Village", 
        "lat": "32.3064", 
        "lng": "-64.7736", 
        "country": "Bermuda", 
        "iso2": "BM", 
        "admin_name": "Devonshire", 
        "capital": "", 
        "population": "", 
        "population_proper": ""
    }, 
    {
        "city": "Hinson Hall", 
        "lat": "32.3136", 
        "lng": "-64.7436", 
        "country": "Bermuda", 
        "iso2": "BM", 
        "admin_name": "Smith\u2019s", 
        "capital": "", 
        "population": "", 
        "population_proper": ""
    }, 
    {
        "city": "Mount Pleasant", 
        "lat": "32.2742", 
        "lng": "-64.7836", 
        "country": "Bermuda", 
        "iso2": "BM", 
        "admin_name": "Paget", 
        "capital": "", 
        "population": "", 
        "population_proper": ""
    }, 
    {
        "city": "Flatt\u2019s Village", 
        "lat": "32.3211", 
        "lng": "-64.7369", 
        "country": "Bermuda", 
        "iso2": "BM", 
        "admin_name": "Hamilton", 
        "capital": "", 
        "population": "", 
        "population_proper": ""
    }, 
    {
        "city": "Harrington Hundreds", 
        "lat": "32.3186", 
        "lng": "-64.7289", 
        "country": "Bermuda", 
        "iso2": "BM", 
        "admin_name": "Smith\u2019s", 
        "capital": "", 
        "population": "", 
        "population_proper": ""
    }, 
    {
        "city": "Camden", 
        "lat": "32.2942", 
        "lng": "-64.7606", 
        "country": "Bermuda", 
        "iso2": "BM", 
        "admin_name": "Paget", 
        "capital": "", 
        "population": "", 
        "population_proper": ""
    },
	    {
        "city": "Stovel Bay", 
        "lat": "32.306", 
        "lng": "-64.814", 
        "country": "Bermuda", 
        "iso2": "BM", 
        "admin_name": "Pembroke", 
        "capital": "", 
        "population": "411", 
        "population_proper": ""
    },
    {
        "city": "Bandar Seri Begawan", 
        "lat": "4.9167", 
        "lng": "114.9167", 
        "country": "Brunei", 
        "iso2": "BN", 
        "admin_name": "Brunei and Muara", 
        "capital": "primary", 
        "population": "50000", 
        "population_proper": "50000"
    }, 
    {
        "city": "Kuala Belait", 
        "lat": "4.5833", 
        "lng": "114.1833", 
        "country": "Brunei", 
        "iso2": "BN", 
        "admin_name": "Belait", 
        "capital": "admin", 
        "population": "30267", 
        "population_proper": "30267"
    }, 
    {
        "city": "Seria", 
        "lat": "4.6142", 
        "lng": "114.3303", 
        "country": "Brunei", 
        "iso2": "BN", 
        "admin_name": "Belait", 
        "capital": "", 
        "population": "21082", 
        "population_proper": "21082"
    }, 
    {
        "city": "Kampong Terap Bau", 
        "lat": "4.8667", 
        "lng": "114.9333", 
        "country": "Brunei", 
        "iso2": "BN", 
        "admin_name": "Brunei and Muara", 
        "capital": "", 
        "population": "", 
        "population_proper": ""
    }, 
    {
        "city": "Kampong Lupak Luas", 
        "lat": "4.8667", 
        "lng": "114.9333", 
        "country": "Brunei", 
        "iso2": "BN", 
        "admin_name": "Brunei and Muara", 
        "capital": "", 
        "population": "", 
        "population_proper": ""
    }, 
    {
        "city": "Kampong Sungai Asam", 
        "lat": "4.8833", 
        "lng": "114.9333", 
        "country": "Brunei", 
        "iso2": "BN", 
        "admin_name": "Brunei and Muara", 
        "capital": "", 
        "population": "", 
        "population_proper": ""
    }, 
    {
        "city": "Kampong Parit", 
        "lat": "4.8833", 
        "lng": "114.9333", 
        "country": "Brunei", 
        "iso2": "BN", 
        "admin_name": "Brunei and Muara", 
        "capital": "", 
        "population": "", 
        "population_proper": ""
    }, 
    {
        "city": "Tutong", 
        "lat": "4.8028", 
        "lng": "114.6492", 
        "country": "Brunei", 
        "iso2": "BN", 
        "admin_name": "Tutong", 
        "capital": "admin", 
        "population": "", 
        "population_proper": ""
    }, 
    {
        "city": "Bangar", 
        "lat": "4.7083", 
        "lng": "115.0736", 
        "country": "Brunei", 
        "iso2": "BN", 
        "admin_name": "Temburong", 
        "capital": "admin", 
        "population": "", 
        "population_proper": ""
    }, 
    {
        "city": "Kampong Ranggu", 
        "lat": "4.8667", 
        "lng": "114.9167", 
        "country": "Brunei", 
        "iso2": "BN", 
        "admin_name": "Brunei and Muara", 
        "capital": "", 
        "population": "", 
        "population_proper": ""
    },
    {
        "city": "Santa Cruz", 
        "lat": "-17.7892", 
        "lng": "-63.1975", 
        "country": "Bolivia", 
        "iso2": "BO", 
        "admin_name": "Santa Cruz", 
        "capital": "admin", 
        "population": "3151676", 
        "population_proper": "3151676"
    }, 
    {
        "city": "La Paz", 
        "lat": "-16.4942", 
        "lng": "-68.1475", 
        "country": "Bolivia", 
        "iso2": "BO", 
        "admin_name": "La Paz", 
        "capital": "primary", 
        "population": "2867504", 
        "population_proper": "2867504"
    }, 
    {
        "city": "Cochabamba", 
        "lat": "-17.3935", 
        "lng": "-66.1570", 
        "country": "Bolivia", 
        "iso2": "BO", 
        "admin_name": "Cochabamba", 
        "capital": "admin", 
        "population": "632013", 
        "population_proper": "632013"
    }, 
    {
        "city": "Sucre", 
        "lat": "-19.0431", 
        "lng": "-65.2592", 
        "country": "Bolivia", 
        "iso2": "BO", 
        "admin_name": "Chuquisaca", 
        "capital": "primary", 
        "population": "300000", 
        "population_proper": "300000"
    }, 
    {
        "city": "Oruro", 
        "lat": "-17.9667", 
        "lng": "-67.1167", 
        "country": "Bolivia", 
        "iso2": "BO", 
        "admin_name": "Oruro", 
        "capital": "", 
        "population": "264683", 
        "population_proper": "264683"
    }, 
    {
        "city": "Oruro", 
        "lat": "-17.9800", 
        "lng": "-67.1300", 
        "country": "Bolivia", 
        "iso2": "BO", 
        "admin_name": "Oruro", 
        "capital": "admin", 
        "population": "246501", 
        "population_proper": "208684"
    }, 
    {
        "city": "Warnes", 
        "lat": "-17.5103", 
        "lng": "-63.1647", 
        "country": "Bolivia", 
        "iso2": "BO", 
        "admin_name": "Santa Cruz", 
        "capital": "", 
        "population": "214216", 
        "population_proper": "214216"
    }, 
    {
        "city": "Potos\u00ed", 
        "lat": "-19.5833", 
        "lng": "-65.7500", 
        "country": "Bolivia", 
        "iso2": "BO", 
        "admin_name": "Potos\u00ed", 
        "capital": "admin", 
        "population": "189652", 
        "population_proper": "189652"
    }, 
    {
        "city": "Tarija", 
        "lat": "-21.5317", 
        "lng": "-64.7311", 
        "country": "Bolivia", 
        "iso2": "BO", 
        "admin_name": "Tarija", 
        "capital": "admin", 
        "population": "179528", 
        "population_proper": "179528"
    }, 
    {
        "city": "Sacaba", 
        "lat": "-17.4042", 
        "lng": "-66.0408", 
        "country": "Bolivia", 
        "iso2": "BO", 
        "admin_name": "Cochabamba", 
        "capital": "", 
        "population": "172466", 
        "population_proper": "172466"
    },
    {
        "city": "S\u00e3o Paulo", 
        "lat": "-23.5504", 
        "lng": "-46.6339", 
        "country": "Brazil", 
        "iso2": "BR", 
        "admin_name": "S\u00e3o Paulo", 
        "capital": "admin", 
        "population": "22046000", 
        "population_proper": "12252023"
    }, 
    {
        "city": "Rio de Janeiro", 
        "lat": "-22.9083", 
        "lng": "-43.1964", 
        "country": "Brazil", 
        "iso2": "BR", 
        "admin_name": "Rio de Janeiro", 
        "capital": "admin", 
        "population": "12272000", 
        "population_proper": "6520000"
    }, 
    {
        "city": "Belo Horizonte", 
        "lat": "-19.8917", 
        "lng": "-43.9478", 
        "country": "Brazil", 
        "iso2": "BR", 
        "admin_name": "Minas Gerais", 
        "capital": "admin", 
        "population": "5159000", 
        "population_proper": "2502557"
    }, 
    {
        "city": "Bras\u00edlia", 
        "lat": "-15.7744", 
        "lng": "-48.0773", 
        "country": "Brazil", 
        "iso2": "BR", 
        "admin_name": "Distrito Federal", 
        "capital": "primary", 
        "population": "3015268", 
        "population_proper": "3015268"
    }, 
    {
        "city": "Salvador", 
        "lat": "-12.9708", 
        "lng": "-38.5108", 
        "country": "Brazil", 
        "iso2": "BR", 
        "admin_name": "Bahia", 
        "capital": "admin", 
        "population": "2921087", 
        "population_proper": "2921087"
    }, 
    {
        "city": "Fortaleza", 
        "lat": "-3.7275", 
        "lng": "-38.5275", 
        "country": "Brazil", 
        "iso2": "BR", 
        "admin_name": "Cear\u00e1", 
        "capital": "admin", 
        "population": "2452185", 
        "population_proper": "2452185"
    }, 
    {
        "city": "Curitiba", 
        "lat": "-25.4297", 
        "lng": "-49.2719", 
        "country": "Brazil", 
        "iso2": "BR", 
        "admin_name": "Paran\u00e1", 
        "capital": "admin", 
        "population": "1879355", 
        "population_proper": "1879355"
    }, 
    {
        "city": "Manaus", 
        "lat": "-3.1000", 
        "lng": "-60.0167", 
        "country": "Brazil", 
        "iso2": "BR", 
        "admin_name": "Amazonas", 
        "capital": "admin", 
        "population": "1802014", 
        "population_proper": "1802014"
    }, 
    {
        "city": "Vit\u00f3ria", 
        "lat": "-20.3240", 
        "lng": "-40.3660", 
        "country": "Brazil", 
        "iso2": "BR", 
        "admin_name": "Esp\u00edrito Santo", 
        "capital": "admin", 
        "population": "1704000", 
        "population_proper": "312656"
    }, 
    {
        "city": "Recife", 
        "lat": "-8.0539", 
        "lng": "-34.8808", 
        "country": "Brazil", 
        "iso2": "BR", 
        "admin_name": "Pernambuco", 
        "capital": "admin", 
        "population": "1555039", 
        "population_proper": "1555039"
    },
    {
        "city": "Nassau", 
        "lat": "25.0667", 
        "lng": "-77.3333", 
        "country": "Bahamas, The", 
        "iso2": "BS", 
        "admin_name": "", 
        "capital": "primary", 
        "population": "274400", 
        "population_proper": "274400"
    }, 
    {
        "city": "Freeport City", 
        "lat": "26.5333", 
        "lng": "-78.7000", 
        "country": "Bahamas, The", 
        "iso2": "BS", 
        "admin_name": "City of Freeport", 
        "capital": "", 
        "population": "25383", 
        "population_proper": "25383"
    }, 
    {
        "city": "Marsh Harbour", 
        "lat": "26.4000", 
        "lng": "-77.1700", 
        "country": "Bahamas, The", 
        "iso2": "BS", 
        "admin_name": "Central Abaco", 
        "capital": "", 
        "population": "6283", 
        "population_proper": "6283"
    }, 
    {
        "city": "Rock Sound", 
        "lat": "24.8333", 
        "lng": "-76.3333", 
        "country": "Bahamas, The", 
        "iso2": "BS", 
        "admin_name": "South Eleuthera", 
        "capital": "", 
        "population": "1000", 
        "population_proper": "1000"
    }, 
    {
        "city": "Cockburn Town", 
        "lat": "24.0513", 
        "lng": "-74.5297", 
        "country": "Bahamas, The", 
        "iso2": "BS", 
        "admin_name": "San Salvador", 
        "capital": "", 
        "population": "271", 
        "population_proper": "271"
    }, 
    {
        "city": "Pirates Well", 
        "lat": "22.4328", 
        "lng": "-73.1010", 
        "country": "Bahamas, The", 
        "iso2": "BS", 
        "admin_name": "Mayaguana", 
        "capital": "", 
        "population": "235", 
        "population_proper": "235"
    }, 
    {
        "city": "Lucaya", 
        "lat": "26.533", 
        "lng": "-78.667", 
        "country": "Bahamas, The", 
        "iso2": "BS", 
        "admin_name": "Freeport", 
        "capital": "", 
        "population": "46525", 
        "population_proper": ""
    }, 

    {
        "city": "West End", 
        "lat": "25.0167", 
        "lng": "-77.4333", 
        "country": "Bahamas, The", 
        "iso2": "BS", 
        "admin_name": "West Grand Bahama", 
        "capital": "", 
        "population": "12274", 
        "population_proper": ""
    }, 
    {
        "city": "San Andros", 
        "lat": "25.067", 
        "lng": "-78.05", 
        "country": "Bahamas, The", 
        "iso2": "BS", 
        "admin_name": "North Andros", 
        "capital": "", 
        "population": "7800", 
        "population_proper": ""
    }, 
    {
        "city": "George Town", 
        "lat": "23.516", 
        "lng": "-77.75787", 
        "country": "Bahamas, The", 
        "iso2": "BS", 
        "admin_name": "Exuma", 
        "capital": "", 
        "population": "", 
        "population_proper": ""
    },
    {
        "city": "Thimphu", 
        "lat": "27.4833", 
        "lng": "89.6333", 
        "country": "Bhutan", 
        "iso2": "BT", 
        "admin_name": "Thimphu", 
        "capital": "primary", 
        "population": "104000", 
        "population_proper": "104000"
    }, 
    {
        "city": "Paro", 
        "lat": "27.4333", 
        "lng": "89.4167", 
        "country": "Bhutan", 
        "iso2": "BT", 
        "admin_name": "Paro", 
        "capital": "admin", 
        "population": "15000", 
        "population_proper": "15000"
    }, 
    {
        "city": "Wangdue Phodrang", 
        "lat": "27.4333", 
        "lng": "89.9167", 
        "country": "Bhutan", 
        "iso2": "BT", 
        "admin_name": "Wangdue Phodrang", 
        "capital": "admin", 
        "population": "5000", 
        "population_proper": "5000"
    }, 
    {
        "city": "Punakha", 
        "lat": "27.6167", 
        "lng": "89.8667", 
        "country": "Bhutan", 
        "iso2": "BT", 
        "admin_name": "Punakha", 
        "capital": "admin", 
        "population": "5000", 
        "population_proper": "5000"
    }, 
    {
        "city": "Tsirang", 
        "lat": "27.0219", 
        "lng": "90.1229", 
        "country": "Bhutan", 
        "iso2": "BT", 
        "admin_name": "Tsirang", 
        "capital": "admin", 
        "population": "", 
        "population_proper": ""
    }, 
    {
        "city": "Mongar", 
        "lat": "27.2750", 
        "lng": "91.2400", 
        "country": "Bhutan", 
        "iso2": "BT", 
        "admin_name": "Mongar", 
        "capital": "admin", 
        "population": "", 
        "population_proper": ""
    }, 
    {
        "city": "Haa", 
        "lat": "27.3685", 
        "lng": "89.2918", 
        "country": "Bhutan", 
        "iso2": "BT", 
        "admin_name": "Haa", 
        "capital": "admin", 
        "population": "", 
        "population_proper": ""
    }, 
    {
        "city": "Samdrup Jongkhar", 
        "lat": "26.8007", 
        "lng": "91.5052", 
        "country": "Bhutan", 
        "iso2": "BT", 
        "admin_name": "Samdrup Jongkhar", 
        "capital": "admin", 
        "population": "", 
        "population_proper": ""
    }, 
    {
        "city": "Sarpang", 
        "lat": "26.8639", 
        "lng": "90.2674", 
        "country": "Bhutan", 
        "iso2": "BT", 
        "admin_name": "Sarpang", 
        "capital": "admin", 
        "population": "", 
        "population_proper": ""
    }, 
    {
        "city": "Trashigang", 
        "lat": "27.3333", 
        "lng": "91.5528", 
        "country": "Bhutan", 
        "iso2": "BT", 
        "admin_name": "Trashigang", 
        "capital": "admin", 
        "population": "", 
        "population_proper": ""
    },
    {
        "city": "Gaborone", 
        "lat": "-24.6569", 
        "lng": "25.9086", 
        "country": "Botswana", 
        "iso2": "BW", 
        "admin_name": "Gaborone", 
        "capital": "primary", 
        "population": "231626", 
        "population_proper": "231626"
    }, 
    {
        "city": "Francistown", 
        "lat": "-21.1736", 
        "lng": "27.5125", 
        "country": "Botswana", 
        "iso2": "BW", 
        "admin_name": "Francistown", 
        "capital": "admin", 
        "population": "89979", 
        "population_proper": "88380"
    }, 
    {
        "city": "Molepolole", 
        "lat": "-24.4066", 
        "lng": "25.4951", 
        "country": "Botswana", 
        "iso2": "BW", 
        "admin_name": "Kweneng", 
        "capital": "admin", 
        "population": "67598", 
        "population_proper": "67598"
    }, 
    {
        "city": "Mahalapye", 
        "lat": "-23.1041", 
        "lng": "26.8142", 
        "country": "Botswana", 
        "iso2": "BW", 
        "admin_name": "Central", 
        "capital": "", 
        "population": "50744", 
        "population_proper": "44471"
    }, 
    {
        "city": "Maun", 
        "lat": "-19.9833", 
        "lng": "23.4167", 
        "country": "Botswana", 
        "iso2": "BW", 
        "admin_name": "North West", 
        "capital": "admin", 
        "population": "49945", 
        "population_proper": "44173"
    }, 
    {
        "city": "Selibe Phikwe", 
        "lat": "-21.9667", 
        "lng": "27.9167", 
        "country": "Botswana", 
        "iso2": "BW", 
        "admin_name": "Selibe Phikwe", 
        "capital": "admin", 
        "population": "49724", 
        "population_proper": "49724"
    }, 
    {
        "city": "Serowe", 
        "lat": "-22.3833", 
        "lng": "26.7167", 
        "country": "Botswana", 
        "iso2": "BW", 
        "admin_name": "Central", 
        "capital": "admin", 
        "population": "48573", 
        "population_proper": "47419"
    }, 
    {
        "city": "Kanye", 
        "lat": "-24.9833", 
        "lng": "25.3500", 
        "country": "Botswana", 
        "iso2": "BW", 
        "admin_name": "Southern", 
        "capital": "admin", 
        "population": "46831", 
        "population_proper": "44716"
    }, 
    {
        "city": "Mochudi", 
        "lat": "-24.3770", 
        "lng": "26.1520", 
        "country": "Botswana", 
        "iso2": "BW", 
        "admin_name": "Kgatleng", 
        "capital": "admin", 
        "population": "39700", 
        "population_proper": "39700"
    }, 
    {
        "city": "Lobatse", 
        "lat": "-25.2167", 
        "lng": "25.6667", 
        "country": "Botswana", 
        "iso2": "BW", 
        "admin_name": "Lobatse", 
        "capital": "admin", 
        "population": "29700", 
        "population_proper": "29700"
    },
    {
        "city": "Minsk", 
        "lat": "53.9022", 
        "lng": "27.5618", 
        "country": "Belarus", 
        "iso2": "BY", 
        "admin_name": "Minsk", 
        "capital": "primary", 
        "population": "2020600", 
        "population_proper": "2020600"
    }, 
    {
        "city": "Homyel\u2019", 
        "lat": "52.4417", 
        "lng": "30.9833", 
        "country": "Belarus", 
        "iso2": "BY", 
        "admin_name": "Homyel\u2019skaya Voblasts\u2019", 
        "capital": "admin", 
        "population": "510300", 
        "population_proper": "510300"
    }, 
    {
        "city": "Vitsyebsk", 
        "lat": "55.1833", 
        "lng": "30.1667", 
        "country": "Belarus", 
        "iso2": "BY", 
        "admin_name": "Vitsyebskaya Voblasts\u2019", 
        "capital": "admin", 
        "population": "364800", 
        "population_proper": "364800"
    }, 
    {
        "city": "Mahilyow", 
        "lat": "53.9089", 
        "lng": "30.3430", 
        "country": "Belarus", 
        "iso2": "BY", 
        "admin_name": "Mahilyowskaya Voblasts\u2019", 
        "capital": "admin", 
        "population": "357100", 
        "population_proper": "357100"
    }, 
    {
        "city": "Hrodna", 
        "lat": "53.6667", 
        "lng": "23.8167", 
        "country": "Belarus", 
        "iso2": "BY", 
        "admin_name": "Hrodzyenskaya Voblasts\u2019", 
        "capital": "admin", 
        "population": "356900", 
        "population_proper": "356900"
    }, 
    {
        "city": "Brest", 
        "lat": "52.0847", 
        "lng": "23.6569", 
        "country": "Belarus", 
        "iso2": "BY", 
        "admin_name": "Brestskaya Voblasts\u2019", 
        "capital": "admin", 
        "population": "339700", 
        "population_proper": "339700"
    }, 
    {
        "city": "Babruysk", 
        "lat": "53.1500", 
        "lng": "29.2333", 
        "country": "Belarus", 
        "iso2": "BY", 
        "admin_name": "Mahilyowskaya Voblasts\u2019", 
        "capital": "minor", 
        "population": "212200", 
        "population_proper": "212200"
    }, 
    {
        "city": "Baranavichy", 
        "lat": "53.1167", 
        "lng": "25.9833", 
        "country": "Belarus", 
        "iso2": "BY", 
        "admin_name": "Brestskaya Voblasts\u2019", 
        "capital": "minor", 
        "population": "175000", 
        "population_proper": "175000"
    }, 
    {
        "city": "Horad Barysaw", 
        "lat": "54.2260", 
        "lng": "28.4922", 
        "country": "Belarus", 
        "iso2": "BY", 
        "admin_name": "Minskaya Voblasts\u2019", 
        "capital": "minor", 
        "population": "155389", 
        "population_proper": "100000"
    }, 
    {
        "city": "Pinsk", 
        "lat": "52.1228", 
        "lng": "26.0950", 
        "country": "Belarus", 
        "iso2": "BY", 
        "admin_name": "Brestskaya Voblasts\u2019", 
        "capital": "minor", 
        "population": "126300", 
        "population_proper": "126300"
    },
    {
        "city": "Belize City", 
        "lat": "17.4986", 
        "lng": "-88.1886", 
        "country": "Belize", 
        "iso2": "BZ", 
        "admin_name": "Belize", 
        "capital": "admin", 
        "population": "57169", 
        "population_proper": "57169"
    }, 
    {
        "city": "Orange Walk", 
        "lat": "18.0750", 
        "lng": "-88.5583", 
        "country": "Belize", 
        "iso2": "BZ", 
        "admin_name": "Orange Walk", 
        "capital": "admin", 
        "population": "18000", 
        "population_proper": "18000"
    }, 
    {
        "city": "Belmopan", 
        "lat": "17.2500", 
        "lng": "-88.7675", 
        "country": "Belize", 
        "iso2": "BZ", 
        "admin_name": "Cayo", 
        "capital": "primary", 
        "population": "17222", 
        "population_proper": "17222"
    }, 
    {
        "city": "San Ignacio", 
        "lat": "17.1588", 
        "lng": "-89.0696", 
        "country": "Belize", 
        "iso2": "BZ", 
        "admin_name": "Cayo", 
        "capital": "admin", 
        "population": "16977", 
        "population_proper": "16977"
    }, 
    {
        "city": "San Pedro", 
        "lat": "17.9214", 
        "lng": "-87.9611", 
        "country": "Belize", 
        "iso2": "BZ", 
        "admin_name": "Belize", 
        "capital": "", 
        "population": "11767", 
        "population_proper": "11767"
    }, 
    {
        "city": "Dangriga", 
        "lat": "16.9667", 
        "lng": "-88.2167", 
        "country": "Belize", 
        "iso2": "BZ", 
        "admin_name": "Stann Creek", 
        "capital": "admin", 
        "population": "9096", 
        "population_proper": "9096"
    }, 
    {
        "city": "Corozal", 
        "lat": "18.4000", 
        "lng": "-88.4000", 
        "country": "Belize", 
        "iso2": "BZ", 
        "admin_name": "Corozal", 
        "capital": "admin", 
        "population": "8800", 
        "population_proper": "8800"
    }, 
    {
        "city": "Punta Gorda", 
        "lat": "16.1000", 
        "lng": "-88.8000", 
        "country": "Belize", 
        "iso2": "BZ", 
        "admin_name": "Toledo", 
        "capital": "admin", 
        "population": "5026", 
        "population_proper": "5026"
    }, 
    {
        "city": "Consejo", 
        "lat": "18.4583", 
        "lng": "-88.3000", 
        "country": "Belize", 
        "iso2": "BZ", 
        "admin_name": "Corozal", 
        "capital": "", 
        "population": "", 
        "population_proper": ""
    }, 
    {
        "city": "Benque Viejo el Carmen", 
        "lat": "17.0667", 
        "lng": "-89.1333", 
        "country": "Belize", 
        "iso2": "BZ", 
        "admin_name": "Cayo", 
        "capital": "", 
        "population": "", 
        "population_proper": ""
    },
    {
        "city": "Toronto", 
        "lat": "43.7", 
        "lng": "-79.416", 
        "country": "Canada", 
        "iso2": "CA", 
        "admin_name": "Ontario", 
        "capital": "admin", 
        "population": "2600000", 
        "population_proper": "2600000"
    }, 
    {
        "city": "Montreal", 
        "lat": "45.509", 
        "lng": "-73.588", 
        "country": "Canada", 
        "iso2": "CA", 
        "admin_name": "Quebec", 
        "capital": "admin", 
        "population": "1600000", 
        "population_proper": "1600000"
    }, 
    {
        "city": "Calgary", 
        "lat": "51.05", 
        "lng": "-114.085", 
        "country": "Canada", 
        "iso2": "CA", 
        "admin_name": "Alberta", 
        "capital": "admin", 
        "population": "1019942", 
        "population_proper": "1019942"
    }, 
    {
        "city": "Ottawa", 
        "lat": "45.411", 
        "lng": "-75.698", 
        "country": "Canada", 
        "iso2": "CA", 
        "admin_name": "Ontario", 
        "capital": "primary", 
        "population": "812129", 
        "population_proper": "812129"
    }, 
    {
        "city": "Edmonton", 
        "lat": "53.55", 
        "lng": "-113.469", 
        "country": "Canada", 
        "iso2": "CA", 
        "admin_name": "Alberta", 
        "capital": "admin", 
        "population": "712391", 
        "population_proper": "712391"
    }, 
    {
        "city": "Mississauga", 
        "lat": "43.579", 
        "lng": "-79.658", 
        "country": "Canada", 
        "iso2": "CA", 
        "admin_name": "Ontario", 
        "capital": "admin", 
        "population": "668549", 
        "population_proper": "668549"
    }, 
    {
        "city": "Winnipeg", 
        "lat": "49.884", 
        "lng": "-97.147", 
        "country": "Canada", 
        "iso2": "CA", 
        "admin_name": "Manitoba", 
        "capital": "admin", 
        "population": "632063", 
        "population_proper": "632063"
    }, 
    {
        "city": "Vancouver", 
        "lat": "49.25", 
        "lng": "-123.119", 
        "country": "Canada", 
        "iso2": "CA", 
        "admin_name": "British Columbia", 
        "capital": "", 
        "population": "600000", 
        "population_proper": "600000"
    }, 
    {
        "city": "Quebec", 
        "lat": "46.812", 
        "lng": "-71.215", 
        "country": "Canada", 
        "iso2": "CA", 
        "admin_name": "Quebec", 
        "capital": "admin", 
        "population": "528595", 
        "population_proper": "528595"
    }, 
    {
        "city": "Hamilton", 
        "lat": "43.25", 
        "lng": "-79.85", 
        "country": "Canada", 
        "iso2": "CA", 
        "admin_name": "Ontario", 
        "capital": "", 
        "population": "519949", 
        "population_proper": "519949"
    },
    {
        "city": "Kinshasa", 
        "lat": "-4.3317", 
        "lng": "15.3139", 
        "country": "Congo (Kinshasa)", 
        "iso2": "CD", 
        "admin_name": "Kinshasa", 
        "capital": "primary", 
        "population": "13528000", 
        "population_proper": "11462000"
    }, 
    {
        "city": "Kananga", 
        "lat": "-5.8970", 
        "lng": "22.4488", 
        "country": "Congo (Kinshasa)", 
        "iso2": "CD", 
        "admin_name": "Kasa\u00ef Central", 
        "capital": "admin", 
        "population": "1971704", 
        "population_proper": "1971704"
    }, 
    {
        "city": "Lubumbashi", 
        "lat": "-11.6697", 
        "lng": "27.4581", 
        "country": "Congo (Kinshasa)", 
        "iso2": "CD", 
        "admin_name": "Haut-Katanga", 
        "capital": "admin", 
        "population": "1786397", 
        "population_proper": "1786397"
    }, 
    {
        "city": "Mbuji-Mayi", 
        "lat": "-6.1209", 
        "lng": "23.5967", 
        "country": "Congo (Kinshasa)", 
        "iso2": "CD", 
        "admin_name": "Kasa\u00ef Oriental", 
        "capital": "admin", 
        "population": "1295000", 
        "population_proper": "874761"
    }, 
    {
        "city": "Kisangani", 
        "lat": "0.5153", 
        "lng": "25.1911", 
        "country": "Congo (Kinshasa)", 
        "iso2": "CD", 
        "admin_name": "Tshopo", 
        "capital": "admin", 
        "population": "935977", 
        "population_proper": "935977"
    }, 
    {
        "city": "Kikwit", 
        "lat": "-5.0333", 
        "lng": "18.8167", 
        "country": "Congo (Kinshasa)", 
        "iso2": "CD", 
        "admin_name": "Kwilu", 
        "capital": "admin", 
        "population": "637736", 
        "population_proper": "294210"
    }, 
    {
        "city": "Bukavu", 
        "lat": "-2.5000", 
        "lng": "28.8667", 
        "country": "Congo (Kinshasa)", 
        "iso2": "CD", 
        "admin_name": "Sud-Kivu", 
        "capital": "admin", 
        "population": "436779", 
        "population_proper": "225389"
    }, 
    {
        "city": "Likasi", 
        "lat": "-10.9833", 
        "lng": "26.7333", 
        "country": "Congo (Kinshasa)", 
        "iso2": "CD", 
        "admin_name": "Haut-Katanga", 
        "capital": "", 
        "population": "422535", 
        "population_proper": "422535"
    }, 
    {
        "city": "Kolwezi", 
        "lat": "-10.7167", 
        "lng": "25.4667", 
        "country": "Congo (Kinshasa)", 
        "iso2": "CD", 
        "admin_name": "Lualaba", 
        "capital": "admin", 
        "population": "418000", 
        "population_proper": "418000"
    }, 
    {
        "city": "Beni", 
        "lat": "0.5000", 
        "lng": "29.4667", 
        "country": "Congo (Kinshasa)", 
        "iso2": "CD", 
        "admin_name": "Nord-Kivu", 
        "capital": "", 
        "population": "332903", 
        "population_proper": "89648"
    },
    {
        "city": "Bangui", 
        "lat": "4.3732", 
        "lng": "18.5628", 
        "country": "Central African Republic", 
        "iso2": "CF", 
        "admin_name": "Bangui", 
        "capital": "primary", 
        "population": "734350", 
        "population_proper": "734350"
    }, 
    {
        "city": "Bimbo", 
        "lat": "4.3313", 
        "lng": "18.5163", 
        "country": "Central African Republic", 
        "iso2": "CF", 
        "admin_name": "Ombella-Mpoko", 
        "capital": "admin", 
        "population": "124176", 
        "population_proper": "124176"
    },